Formatted Date,Summary,Precip Type,Temperature (C),Apparent Temperature (C),Humidity,Wind Speed (km/h),Wind Bearing (degrees),Visibility (km),Loud Cover,Pressure (millibars),Daily Summary,station_id,city_name,country,state,iso2,iso3,latitude,longitude
2006-04-01 00:00:00.000 +0200,Partly Cloudy,rain,9.472222222222221,7.3888888888888875,0.89,14.1197,251,15.826300000000002,0,1015.13,Partly cloudy throughout the day.,41515,Asadabad,Afghanistan,Kunar,AF,AFG,34.86600004,71.15000459
2006-04-01 01:00:00.000 +0200,Partly Cloudy,rain,9.355555555555558,7.227777777777776,0.86,14.2646,259,15.826300000000002,0,1015.63,Partly cloudy throughout the day.,38954,Fayzabad,Afghanistan,Badakhshan,AF,AFG,37.12976076,70.57924719
2006-04-01 02:00:00.000 +0200,Mostly Cloudy,rain,9.377777777777778,9.377777777777778,0.89,3.9284000000000003,204,14.9569,0,1015.94,Partly cloudy throughout the day.,41560,Jalalabad,Afghanistan,Nangarhar,AF,AFG,34.44152692,70.43610347
2006-04-01 03:00:00.000 +0200,Partly Cloudy,rain,8.28888888888889,5.944444444444446,0.83,14.1036,269,15.826300000000002,0,1016.41,Partly cloudy throughout the day.,38947,Kunduz,Afghanistan,Kunduz,AF,AFG,36.72795066,68.87252966
2006-04-01 04:00:00.000 +0200,Mostly Cloudy,rain,8.755555555555553,6.977777777777779,0.83,11.0446,259,15.826300000000002,0,1016.51,Partly cloudy throughout the day.,38987,Qala i Naw,Afghanistan,Badghis,AF,AFG,34.98300013,63.13329964
2006-04-01 05:00:00.000 +0200,Partly Cloudy,rain,9.222222222222221,7.11111111111111,0.85,13.9587,258,14.9569,0,1016.66,Partly cloudy throughout the day.,38915,Sheberghan,Afghanistan,Jawzjan,AF,AFG,36.65798077,65.73830237
2006-04-01 06:00:00.000 +0200,Partly Cloudy,rain,7.733333333333334,5.522222222222221,0.95,12.3648,259,9.982000000000001,0,1016.72,Partly cloudy throughout the day.,13577,Peshkopi,Albania,Dibër,AL,ALB,41.6833021,20.43330349
2006-04-01 07:00:00.000 +0200,Partly Cloudy,rain,8.77222222222222,6.527777777777778,0.89,14.1519,260,9.982000000000001,0,1016.84,Partly cloudy throughout the day.,13461,Shkodër,Albania,Shkodër,AL,ALB,42.06845156,19.51884965
2006-04-01 08:00:00.000 +0200,Partly Cloudy,rain,10.82222222222222,10.82222222222222,0.82,11.3183,259,9.982000000000001,0,1017.37,Partly cloudy throughout the day.,13615,Tirana,Albania,Durrës,AL,ALB,41.32754071,19.81888301
2006-04-01 09:00:00.000 +0200,Partly Cloudy,rain,13.77222222222222,13.77222222222222,0.72,12.525800000000002,279,9.982000000000001,0,1017.22,Partly cloudy throughout the day.,60620,Adrar,Algeria,Adrar,DZ,DZA,27.86999005,-0.289967083
2006-04-01 10:00:00.000 +0200,Partly Cloudy,rain,16.016666666666666,16.016666666666666,0.67,17.5651,290,11.2056,0,1017.42,Partly cloudy throughout the day.,60369,Algiers,Algeria,Alger,DZ,DZA,36.7630648,3.05055253
2006-04-01 11:00:00.000 +0200,Partly Cloudy,rain,17.144444444444446,17.144444444444446,0.54,19.7869,316,11.4471,0,1017.74,Partly cloudy throughout the day.,60360,Annaba,Algeria,Annaba,DZ,DZA,36.92000612,7.759980834
2006-04-01 12:00:00.000 +0200,Partly Cloudy,rain,17.800000000000004,17.800000000000004,0.55,21.944300000000002,281,11.270000000000001,0,1017.59,Partly cloudy throughout the day.,60468,Batna,Algeria,Batna,DZ,DZA,35.56995933,6.170000365
2006-04-01 13:00:00.000 +0200,Partly Cloudy,rain,17.333333333333332,17.333333333333332,0.51,20.6885,289,11.270000000000001,0,1017.48,Partly cloudy throughout the day.,60525,Biskra,Algeria,Biskra,DZ,DZA,34.85997683,5.73002722
2006-04-01 14:00:00.000 +0200,Partly Cloudy,rain,18.87777777777778,18.87777777777778,0.47,15.375500000000002,262,11.4471,0,1017.17,Partly cloudy throughout the day.,60444,Bordj Bou Arréridj,Algeria,Bordj Bou Arreridj,DZ,DZA,36.05900401,4.629996466
2006-04-01 15:00:00.000 +0200,Partly Cloudy,rain,18.911111111111115,18.911111111111115,0.46,10.4006,288,11.270000000000001,0,1016.47,Partly cloudy throughout the day.,60571,Béchar,Algeria,Béchar,DZ,DZA,31.61110537,-2.230003704
2006-04-01 16:00:00.000 +0200,Partly Cloudy,rain,15.38888888888889,15.38888888888889,0.6,14.4095,251,11.270000000000001,0,1016.15,Partly cloudy throughout the day.,60402,Béjaïa,Algeria,Béjaïa,DZ,DZA,36.76037762,5.070015827
2006-04-01 17:00:00.000 +0200,Mostly Cloudy,rain,15.550000000000002,15.550000000000002,0.63,11.157300000000001,230,11.4471,0,1016.17,Partly cloudy throughout the day.,60419,Constantine,Algeria,Constantine,DZ,DZA,36.35998863,6.599948281
2006-04-01 18:00:00.000 +0200,Mostly Cloudy,rain,14.255555555555553,14.255555555555553,0.69,8.5169,163,11.2056,0,1015.82,Partly cloudy throughout the day.,60535,Djelfa,Algeria,Djelfa,DZ,DZA,34.67998781,3.250023558
2006-04-01 19:00:00.000 +0200,Mostly Cloudy,rain,13.144444444444442,13.144444444444442,0.7,7.631400000000001,139,11.2056,0,1015.83,Partly cloudy throughout the day.,60403,Guelma,Algeria,Guelma,DZ,DZA,36.46600213,7.427997486
2006-04-01 20:00:00.000 +0200,Mostly Cloudy,rain,11.549999999999999,11.549999999999999,0.77,7.3899,147,11.0285,0,1015.85,Partly cloudy throughout the day.,60351,Jijel,Algeria,Jijel,DZ,DZA,36.82199703,5.76600356
2006-04-01 21:00:00.000 +0200,Mostly Cloudy,rain,11.183333333333334,11.183333333333334,0.76,4.9266000000000005,160,9.982000000000001,0,1015.77,Partly cloudy throughout the day.,60545,Laghouat,Algeria,Laghouat,DZ,DZA,33.80998924,2.880020303
2006-04-01 22:00:00.000 +0200,Partly Cloudy,rain,10.116666666666667,10.116666666666667,0.79,6.6493,163,15.826300000000002,0,1015.4,Partly cloudy throughout the day.,60467,M'Sila,Algeria,M'Sila,DZ,DZA,35.7000031,4.545000584
2006-04-01 23:00:00.000 +0200,Mostly Cloudy,rain,10.2,10.2,0.77,3.9284000000000003,152,14.9569,0,1015.51,Partly cloudy throughout the day.,60507,Mascara,Algeria,Mascara,DZ,DZA,35.40040895,0.14003251
2006-04-10 00:00:00.000 +0200,Partly Cloudy,rain,10.42222222222222,10.42222222222222,0.62,16.985500000000002,150,15.826300000000002,0,1014.4,Mostly cloudy throughout the day.,60457,Mostaganem,Algeria,Mostaganem,DZ,DZA,35.940376,0.089983885
2006-04-10 01:00:00.000 +0200,Partly Cloudy,rain,9.911111111111113,7.566666666666666,0.66,17.2109,149,15.826300000000002,0,1014.2,Mostly cloudy throughout the day.,60437,Médéa,Algeria,Médéa,DZ,DZA,36.27040753,2.770001179
2006-04-10 02:00:00.000 +0200,Mostly Cloudy,rain,11.183333333333334,11.183333333333334,0.8,10.8192,163,14.9569,0,1008.71,Mostly cloudy throughout the day.,60580,Ouargla,Algeria,Ouargla,DZ,DZA,31.96997235,5.340025186
2006-04-10 03:00:00.000 +0200,Partly Cloudy,rain,7.155555555555556,5.044444444444443,0.79,11.0768,180,15.826300000000002,0,1014.47,Mostly cloudy throughout the day.,60421,Oum El Bouaghi,Algeria,Oum el Bouaghi,DZ,DZA,35.84999715,7.149996522
2006-04-10 04:00:00.000 +0200,Partly Cloudy,rain,6.111111111111111,4.816666666666667,0.82,6.6493,161,15.826300000000002,0,1014.45,Mostly cloudy throughout the day.,60536,Saïda,Algeria,Saïda,DZ,DZA,34.84039146,0.14003251
2006-04-10 05:00:00.000 +0200,Partly Cloudy,rain,6.788888888888888,4.272222222222221,0.83,13.0088,135,14.9569,0,1014.49,Mostly cloudy throughout the day.,60549,Sidi Bel Abbès,Algeria,Sidi Bel Abbès,DZ,DZA,35.19034426,-0.639971559
2006-04-10 06:00:00.000 +0200,Mostly Cloudy,rain,7.26111111111111,5.155555555555556,0.85,11.1734,141,6.1985,0,1014.52,Mostly cloudy throughout the day.,60355,Skikda,Algeria,Skikda,DZ,DZA,36.88042198,6.899981647
2006-04-10 07:00:00.000 +0200,Mostly Cloudy,rain,7.799999999999999,5.5277777777777795,0.83,12.8156,150,8.05,0,1014.16,Mostly cloudy throughout the day.,60445,Sétif,Algeria,SZtif,DZ,DZA,36.18002545,5.399969847
2006-04-10 08:00:00.000 +0200,Mostly Cloudy,rain,9.872222222222225,7.933333333333334,0.78,13.7494,160,9.982000000000001,0,1014.24,Mostly cloudy throughout the day.,60511,Tiaret,Algeria,Tiaret,DZ,DZA,35.38043601,1.319960489
2006-04-10 09:00:00.000 +0200,Mostly Cloudy,rain,12.222222222222221,12.222222222222221,0.72,15.633100000000002,150,9.982000000000001,0,1014.25,Mostly cloudy throughout the day.,60395,Tizi Ouzou,Algeria,Tizi Ouzou,DZ,DZA,36.80000111,4.033332556
2006-04-10 10:00:00.000 +0200,Mostly Cloudy,rain,15.094444444444447,15.094444444444447,0.61,17.549000000000003,151,9.982000000000001,0,1013.96,Mostly cloudy throughout the day.,60531,Tlemcen,Algeria,Tlemcen,DZ,DZA,34.89041424,-1.32000757
2006-04-10 11:00:00.000 +0200,Mostly Cloudy,rain,17.355555555555558,17.355555555555558,0.52,22.7815,169,9.982000000000001,0,1013.85,Mostly cloudy throughout the day.,60475,Tébessa,Algeria,TZbessa,DZ,DZA,35.41043418,8.120010537
2006-04-10 12:00:00.000 +0200,Mostly Cloudy,rain,19.00555555555555,19.00555555555555,0.46,23.892400000000002,169,9.982000000000001,0,1013.04,Mostly cloudy throughout the day.,91765,Pago Pago,American Samoa,,AS,ASM,-14.2766105,-170.7066451
2006-04-10 13:00:00.000 +0200,Mostly Cloudy,rain,20.04444444444444,20.04444444444444,0.4,28.3682,170,9.982000000000001,0,1012.22,Mostly cloudy throughout the day.,07627,Andorra la Vella,Andorra,,AD,AND,42.50000144,1.516485961
2006-04-10 14:00:00.000 +0200,Mostly Cloudy,rain,21.049999999999997,21.049999999999997,0.4,26.903100000000002,187,10.3523,0,1011.44,Mostly cloudy throughout the day.,64400,Cabinda,Angola,Cabinda,AO,AGO,-5.55962319,12.18999467
2006-04-10 15:00:00.000 +0200,Mostly Cloudy,rain,21.18333333333333,21.18333333333333,0.37,25.695600000000002,179,9.982000000000001,0,1010.52,Mostly cloudy throughout the day.,66160,Luanda,Angola,Luanda,AO,AGO,-8.838286114,13.23442704
2006-04-10 16:00:00.000 +0200,Mostly Cloudy,rain,20.11666666666666,20.11666666666666,0.4,25.309200000000004,162,9.982000000000001,0,1009.83,Mostly cloudy throughout the day.,68006,Ondjiva,Angola,Cunene,AO,AGO,-17.06961831,15.73003699
2006-04-10 17:00:00.000 +0200,Mostly Cloudy,rain,20.216666666666665,20.216666666666665,0.36,18.1125,161,10.3523,0,1009.26,Mostly cloudy throughout the day.,72552,The Valley,Anguilla,Unknown,AI,AIA,41.559572,-98.980548
2006-04-10 18:00:00.000 +0200,Mostly Cloudy,rain,20,20,0.43,23.425500000000003,160,9.982000000000001,0,1008.76,Mostly cloudy throughout the day.,71801,Saint John's,Antigua and Barbuda,Unknown,AG,ATG,47.561701,-52.715149
2006-04-10 19:00:00.000 +0200,Mostly Cloudy,rain,17.800000000000004,17.800000000000004,0.5,20.0445,150,11.2056,0,1008.36,Mostly cloudy throughout the day.,87582,Buenos Aires,Argentina,Ciudad de Buenos Aires,AR,ARG,-34.60250161,-58.39753137
2006-04-10 20:00:00.000 +0200,Mostly Cloudy,rain,16.06111111111111,16.06111111111111,0.53,21.3969,149,9.982000000000001,0,1008.11,Mostly cloudy throughout the day.,87166,Corrientes,Argentina,Corrientes,AR,ARG,-27.48996417,-58.80998682
2006-04-10 21:00:00.000 +0200,Mostly Cloudy,rain,15.02222222222222,15.02222222222222,0.55,21.3808,159,9.982000000000001,0,1008.15,Mostly cloudy throughout the day.,87344,Córdoba,Argentina,Córdoba,AR,ARG,-31.39995807,-64.18229456
2006-04-10 22:00:00.000 +0200,Overcast,rain,14.422222222222224,14.422222222222224,0.58,20.0123,159,15.826300000000002,0,1007.85,Mostly cloudy throughout the day.,87162,Formosa,Argentina,Formosa,AR,ARG,-26.17283527,-58.1828158
2006-04-10 23:00:00.000 +0200,Overcast,rain,14.255555555555553,14.255555555555553,0.59,16.5025,168,14.9569,0,1007.89,Mostly cloudy throughout the day.,87593,La Plata,Argentina,Ciudad de Buenos Aires,AR,ARG,-34.90961465,-57.95996118
2006-04-11 00:00:00.000 +0200,Overcast,rain,13.77222222222222,13.77222222222222,0.6,17.0982,160,15.826300000000002,0,1007.36,Foggy in the evening.,87217,La Rioja,Argentina,La Rioja,AR,ARG,-29.40995034,-66.84996118
2006-04-11 01:00:00.000 +0200,Overcast,rain,13.283333333333331,13.283333333333331,0.63,14.3612,160,15.826300000000002,0,1007.26,Foggy in the evening.,87420,Mendoza,Argentina,Mendoza,AR,ARG,-32.88333006,-68.81661117
2006-04-11 02:00:00.000 +0200,Overcast,rain,8.633333333333333,5.466666666666669,0.87,22.0409,32,6.6976,0,1005.1,Foggy in the evening.,87715,Neuquén,Argentina,Neuquén,AR,ARG,-38.95003986,-68.05999068
2006-04-11 03:00:00.000 +0200,Overcast,rain,11.25,11.25,0.83,11.3344,152,15.826300000000002,0,1007.01,Foggy in the evening.,87374,Paraná,Argentina,Entre Ríos,AR,ARG,-31.73332273,-60.53334416
2006-04-11 04:00:00.000 +0200,Overcast,rain,11.183333333333334,11.183333333333334,0.89,11.2056,180,9.9015,0,1006.73,Foggy in the evening.,87828,Rawson,Argentina,Chubut,AR,ARG,-43.3000069,-65.09999048
2006-04-11 05:00:00.000 +0200,Overcast,rain,10.694444444444445,10.694444444444445,0.95,10.4006,161,6.6976,0,1006.59,Foggy in the evening.,87155,Resistencia,Argentina,Chaco,AR,ARG,-27.45999184,-58.99002751
2006-04-11 06:00:00.000 +0200,Mostly Cloudy,rain,11.11111111111111,11.11111111111111,0.93,12.0106,140,5.9731000000000005,0,1006.34,Foggy in the evening.,87925,Río Gallegos,Argentina,Santa Cruz,AR,ARG,-51.63329669,-69.21658675
2006-04-11 07:00:00.000 +0200,Mostly Cloudy,rain,11.11111111111111,11.11111111111111,0.93,9.209200000000001,103,10.8031,0,1006.09,Foggy in the evening.,87047,Salta,Argentina,Salta,AR,ARG,-24.78335936,-65.41663782
2006-04-11 08:00:00.000 +0200,Partly Cloudy,rain,12.166666666666666,12.166666666666666,0.82,9.9015,113,10.6743,0,1005.97,Foggy in the evening.,87222,San Fernando del Valle de Catamarca,Argentina,Catamarca,AR,ARG,-28.47000771,-65.78000065
2006-04-11 09:00:00.000 +0200,Partly Cloudy,rain,12.755555555555556,12.755555555555556,0.79,13.8299,129,10.8192,0,1005.63,Foggy in the evening.,87311,San Juan,Argentina,San Juan,AR,ARG,-31.55002643,-68.51998845
2006-04-11 10:00:00.000 +0200,Partly Cloudy,rain,13.838888888888887,13.838888888888887,0.84,9.0965,159,10.8192,0,1005.83,Foggy in the evening.,87436,San Luis,Argentina,San Luis,AR,ARG,-33.29999713,-66.35001754
2006-04-11 11:00:00.000 +0200,Partly Cloudy,rain,16.183333333333334,16.183333333333334,0.73,0.6440000000000001,207,10.7548,0,1005.97,Foggy in the evening.,87121,San Miguel de Tucumán,Argentina,Tucumán,AR,ARG,-26.81600014,-65.21662419
2006-04-11 12:00:00.000 +0200,Mostly Cloudy,rain,17.516666666666666,17.516666666666666,0.67,0.6762,153,10.8997,0,1005.64,Foggy in the evening.,87046,San Salvador de Jujuy,Argentina,Jujuy,AR,ARG,-24.1833443,-65.30002995
2006-04-11 13:00:00.000 +0200,Mostly Cloudy,rain,17.383333333333333,17.383333333333333,0.67,3.864,4,10.851400000000002,0,1005.2,Foggy in the evening.,87623,Santa Rosa,Argentina,La Pampa,AR,ARG,-36.6200012,-64.29998763
2006-04-11 14:00:00.000 +0200,Mostly Cloudy,rain,17.36111111111111,17.36111111111111,0.71,7.824600000000001,341,11.0768,0,1005.1,Foggy in the evening.,87938,Ushuaia,Argentina,Tierra del Fuego,AR,ARG,-54.79000324,-68.31000126
2006-04-11 15:00:00.000 +0200,Mostly Cloudy,rain,17.205555555555556,17.205555555555556,0.74,15.584800000000001,15,10.851400000000002,0,1004.65,Foggy in the evening.,87791,Viedma,Argentina,Ciudad de Buenos Aires,AR,ARG,-40.79995278,-63.0000153
2006-04-11 16:00:00.000 +0200,Mostly Cloudy,rain,15.633333333333333,15.633333333333333,0.81,23.6992,348,10.8836,0,1004.04,Foggy in the evening.,37699,Ashtarak,Armenia,Aragatsotn,AM,ARM,40.3016667,44.3591667
2006-04-11 17:00:00.000 +0200,Overcast,rain,13.577777777777776,13.577777777777776,0.9,20.9622,321,7.615300000000001,0,1004.08,Foggy in the evening.,37801,Gavar,Armenia,Gegharkunik,AM,ARM,40.3588889,45.1266667
2006-04-11 18:00:00.000 +0200,Foggy,rain,10.911111111111111,10.911111111111111,0.86,22.395100000000003,311,2.6565,0,1004.61,Foggy in the evening.,37682,Gyumri,Armenia,Shirak,AM,ARM,40.78943402,43.84749385
2006-04-11 19:00:00.000 +0200,Foggy,rain,8.800000000000002,5.294444444444445,0.99,26.500600000000002,339,2.6565,0,1004.99,Foggy in the evening.,37711,Ijevan,Armenia,Tavush,AM,ARM,40.8755556,45.1491667
2006-04-11 20:00:00.000 +0200,Overcast,rain,8.961111111111112,5.777777777777777,0.93,23.2162,340,3.8157000000000005,0,1004.85,Foggy in the evening.,37792,Yerevan,Armenia,Erevan,AM,ARM,40.18115074,44.51355139
2006-04-11 21:00:00.000 +0200,Overcast,rain,8.199999999999998,4.605555555555555,0.96,25.4219,330,4.4919,0,1004.96,Foggy in the evening.,80410,Oranjestad,Aruba,Unknown,AW,ABW,12.526874,-70.035684
2006-04-11 22:00:00.000 +0200,Overcast,rain,7.688888888888891,3.7222222222222237,0.96,28.1267,339,4.4436,0,1005.14,Foggy in the evening.,95678,Adelaide,Australia,South Australia,AU,AUS,-34.93498777,138.6000048
2006-04-11 23:00:00.000 +0200,Overcast,rain,7.766666666666664,4.649999999999999,0.96,19.2878,339,5.6833,0,1005.05,Foggy in the evening.,94576,Brisbane,Australia,Queensland,AU,AUS,-27.45503091,153.0350927
2006-04-12 00:00:00.000 +0200,Foggy,rain,8.199999999999998,5.072222222222224,0.96,20.447,341,3.1073,0,1004.8,Foggy overnight and breezy in the morning.,94926,Canberra,Australia,Australian Capital Territory,AU,AUS,-35.28302855,149.1290262
2006-04-12 01:00:00.000 +0200,Foggy,rain,8.177777777777777,4.372222222222221,0.93,27.8691,19,3.2039,0,1004.89,Foggy overnight and breezy in the morning.,94120,Darwin,Australia,Northern Territory,AU,AUS,-12.42535398,130.8500386
2006-04-12 02:00:00.000 +0200,Mostly Cloudy,rain,7.311111111111109,6.1833333333333345,0.82,6.745900000000001,277,14.0553,0,1007,Foggy overnight and breezy in the morning.,94970,Hobart,Australia,Tasmania,AU,AUS,-42.85000853,147.2950297
2006-04-12 03:00:00.000 +0200,Overcast,rain,7.644444444444442,5.038888888888889,0.93,14.9086,9,6.118,0,1004.3,Foggy overnight and breezy in the morning.,95866,Melbourne,Australia,Victoria,AU,AUS,-37.82003131,144.9750162
2006-04-12 04:00:00.000 +0200,Overcast,rain,6.622222222222224,2.616666666666667,0.93,25.035500000000003,0,6.118,0,1003.68,Foggy overnight and breezy in the morning.,94614,Perth,Australia,Western Australia,AU,AUS,-31.95501463,115.8399987
2006-04-12 05:00:00.000 +0200,Overcast,rain,6.683333333333334,3.2222222222222205,0.93,19.8352,350,6.166300000000001,0,1003.86,Foggy overnight and breezy in the morning.,94767,Sydney,Australia,New South Wales,AU,AUS,-33.92001097,151.1851798
2006-04-12 06:00:00.000 +0200,Overcast,rain,6.0888888888888895,1.6499999999999995,0.93,28.0945,349,7.969500000000001,0,1003.57,Foggy overnight and breezy in the morning.,D4704,Bregenz,Austria,Vorarlberg,AT,AUT,47.51669707,9.766701588
2006-04-12 07:00:00.000 +0200,Overcast,rain,6.066666666666667,1.633333333333332,0.93,27.9818,348,6.3434,0,1003.96,Foggy overnight and breezy in the morning.,11240,Graz,Austria,Steiermark,AT,AUT,47.0777582,15.41000484
2006-04-12 08:00:00.000 +0200,Breezy and Mostly Cloudy,rain,6.144444444444446,1.4944444444444431,0.93,30.863700000000005,349,10.5455,0,1004.1,Foggy overnight and breezy in the morning.,11120,Innsbruck,Austria,Tirol,AT,AUT,47.28040733,11.4099906
2006-04-12 09:00:00.000 +0200,Breezy and Mostly Cloudy,rain,7.1333333333333355,2.688888888888891,0.8,32.1678,349,11.2056,0,1004.26,Foggy overnight and breezy in the morning.,11231,Klagenfurt,Austria,Kärnten,AT,AUT,46.62034426,14.3100203
2006-04-12 10:00:00.000 +0200,Overcast,rain,7.205555555555555,3.2333333333333334,0.86,26.5328,339,11.270000000000001,0,1004.18,Foggy overnight and breezy in the morning.,11012,Linz,Austria,Oberösterreich,AT,AUT,48.31923281,14.28878129
2006-04-12 11:00:00.000 +0200,Mostly Cloudy,rain,7.566666666666666,3.544444444444446,0.84,28.336000000000006,339,10.5455,0,1004.23,Foggy overnight and breezy in the morning.,11150,Salzburg,Austria,Salzburg,AT,AUT,47.81047833,13.0400203
2006-04-12 12:00:00.000 +0200,Mostly Cloudy,rain,8.900000000000002,5.1611111111111105,0.77,29.833300000000005,348,11.270000000000001,0,1004.47,Foggy overnight and breezy in the morning.,11035,Vienna,Austria,Wien,AT,AUT,48.20001528,16.36663896
2006-04-12 13:00:00.000 +0200,Mostly Cloudy,rain,9.961111111111112,6.644444444444445,0.71,28.480900000000005,339,11.270000000000001,0,1004.52,Foggy overnight and breezy in the morning.,37735,Goranboy,Azerbaijan,Goranboy,AZ,AZE,40.6102778,46.7897222
2006-04-12 14:00:00.000 +0200,Mostly Cloudy,rain,9.888888888888888,6.55,0.71,28.5131,338,11.0768,0,1004.29,Foggy overnight and breezy in the morning.,37815,G?d?b?y,Azerbaijan,G?d?b?y,AZ,AZE,40.5655556,45.8161111
2006-04-12 15:00:00.000 +0200,Mostly Cloudy,rain,11.066666666666668,11.066666666666668,0.71,25.695600000000002,320,11.270000000000001,0,1003.93,Foggy overnight and breezy in the morning.,37958,Kapan,Azerbaijan,Z?ngilan,AZ,AZE,39.20152061,46.41498572
2006-04-12 16:00:00.000 +0200,Overcast,rain,10.116666666666667,10.116666666666667,0.76,25.3414,311,11.270000000000001,0,1004,Foggy overnight and breezy in the morning.,37897,Nakhchivan,Azerbaijan,Naxçivan,AZ,AZE,39.2092204,45.41220455
2006-04-12 17:00:00.000 +0200,Overcast,rain,11.038888888888888,11.038888888888888,0.66,21.413000000000004,311,9.982000000000001,0,1004.3,Foggy overnight and breezy in the morning.,37663,Oguz,Azerbaijan,Oguz,AZ,AZE,41.0708333,47.4583333
2006-04-12 18:00:00.000 +0200,Overcast,rain,10.65,10.65,0.7,17.8549,310,14.9086,0,1004,Foggy overnight and breezy in the morning.,37749,Qabala,Azerbaijan,Q?b?l?,AZ,AZE,40.9813889,47.8458333
2006-04-12 19:00:00.000 +0200,Overcast,rain,10.050000000000002,10.050000000000002,0.7,15.1984,328,9.982000000000001,0,1004.39,Foggy overnight and breezy in the morning.,37756,Sumqayit,Azerbaijan,Sumqayit,AZ,AZE,40.58001528,49.62998328
2006-04-12 20:00:00.000 +0200,Mostly Cloudy,rain,9.899999999999999,7.716666666666667,0.66,15.729700000000001,348,11.0285,0,1005.48,Foggy overnight and breezy in the morning.,41150,Manama,Bahrain,,BH,BHR,26.23613629,50.58305172
2006-04-12 21:00:00.000 +0200,Overcast,rain,8.794444444444444,6.816666666666668,0.71,12.3648,20,9.982000000000001,0,1005.89,Foggy overnight and breezy in the morning.,41950,Barisal,Bangladesh,Barisal,BD,BGD,22.70040895,90.37498979
2006-04-12 22:00:00.000 +0200,Mostly Cloudy,rain,7.827777777777779,5.405555555555554,0.72,13.894300000000003,28,15.826300000000002,0,1006.37,Foggy overnight and breezy in the morning.,41978,Chittagong,Bangladesh,Chittagong,BD,BGD,22.32999229,91.79996741
2006-04-12 23:00:00.000 +0200,Overcast,rain,7.855555555555556,6.122222222222224,0.72,9.8049,11,15.005200000000002,0,1006.56,Foggy overnight and breezy in the morning.,41923,Dhaka,Bangladesh,Dhaka,BD,BGD,23.72305971,90.40857947
2006-04-13 00:00:00.000 +0200,Mostly Cloudy,rain,7.316666666666667,6.211111111111111,0.75,6.6654,326,15.874600000000001,0,1007.07,Overcast throughout the day.,41883,Jamalpur District,Bangladesh,Dhaka,BD,BGD,24.90042971,89.95000281
2006-04-13 01:00:00.000 +0200,Overcast,rain,7.244444444444444,6.005555555555556,0.75,7.1162,309,15.874600000000001,0,1007.37,Overcast throughout the day.,41936,Khulna,Bangladesh,Khulna,BD,BGD,22.839987,89.56000077
2006-04-13 02:00:00.000 +0200,Partly Cloudy,rain,5.438888888888888,5.438888888888888,0.88,3.7191000000000005,193,9.982000000000001,0,1012.23,Overcast throughout the day.,41907,Rajshahi,Bangladesh,Rajshahi,BD,BGD,24.37498374,88.6050203
2006-04-13 03:00:00.000 +0200,Overcast,rain,7.200000000000001,4.549999999999999,0.76,14.4739,273,15.826300000000002,0,1007.28,Overcast throughout the day.,33008,Brest,Belarus,Brest,BY,BLR,52.09998395,23.69998979
2006-04-13 04:00:00.000 +0200,Overcast,rain,6.688888888888888,3.1611111111111097,0.7,20.5275,300,15.826300000000002,0,1007.18,Overcast throughout the day.,33041,Gomel,Belarus,Homyel',BY,BLR,52.43001548,31.00000932
2006-04-13 05:00:00.000 +0200,Overcast,rain,6.211111111111111,2.694444444444445,0.73,19.303900000000002,309,14.9569,0,1007.39,Overcast throughout the day.,26850,Minsk,Belarus,Minsk,BY,BLR,53.89997744,27.56662716
2006-04-13 06:00:00.000 +0200,Overcast,rain,6.111111111111111,2.7999999999999994,0.76,17.436300000000003,300,9.982000000000001,0,1007.67,Overcast throughout the day.,26774,Mogilyov,Belarus,Mahilyow,BY,BLR,53.89850466,30.32465002
2006-04-13 07:00:00.000 +0200,Overcast,rain,6.111111111111111,2.438888888888889,0.76,20.4148,300,9.982000000000001,0,1007.98,Overcast throughout the day.,26666,Vitebsk,Belarus,Vitsyebsk,BY,BLR,55.18871014,30.18533036
2006-04-13 08:00:00.000 +0200,Overcast,rain,6.172222222222222,2.922222222222221,0.76,17.0499,307,9.982000000000001,0,1008.57,Overcast throughout the day.,06447,Brussels,Belgium,Brussels,BE,BEL,50.83331708,4.333316608
2006-04-13 09:00:00.000 +0200,Overcast,rain,7.222222222222222,3.8333333333333326,0.71,20.511400000000002,319,9.982000000000001,0,1008.87,Overcast throughout the day.,78583,Belize City,Belize,Belize,BZ,BLZ,17.49871096,-88.18837447
2006-04-13 10:00:00.000 +0200,Overcast,rain,7.288888888888888,4.2444444444444445,0.73,17.6456,328,9.982000000000001,0,1009.44,Overcast throughout the day.,65338,Abomey,Benin,Zou,BJ,BEN,7.190399596,1.98999711
2006-04-13 11:00:00.000 +0200,Overcast,rain,7.405555555555555,4.816666666666667,0.72,14.4095,318,9.982000000000001,0,1010.03,Overcast throughout the day.,65344,Cotonou,Benin,Ouémé,BJ,BEN,6.400008564,2.519990599
2006-04-13 12:00:00.000 +0200,Overcast,rain,7.96111111111111,6.072222222222222,0.7,10.7548,321,10.0464,0,1010.22,Overcast throughout the day.,65319,Natitingou,Benin,Atakora,BJ,BEN,10.32041526,1.389982054
2006-04-13 13:00:00.000 +0200,Overcast,rain,8.033333333333335,7.583333333333333,0.7,4.8622000000000005,349,10.0464,0,1010.39,Overcast throughout the day.,65330,Parakou,Benin,Borgou,BJ,BEN,9.340009988,2.620036172
2006-04-13 14:00:00.000 +0200,Overcast,rain,9.07777777777778,9.07777777777778,0.65,2.3828,348,10.0303,0,1010.24,Overcast throughout the day.,78016,Hamilton,Bermuda,,BM,BMU,32.29419029,-64.78393742
2006-04-13 15:00:00.000 +0200,Overcast,rain,9.049999999999999,9.049999999999999,0.62,0.32200000000000006,243,9.982000000000001,0,1010,Overcast throughout the day.,42403,Paro,Bhutan,Thimphu,BT,BTN,27.3833011,89.51670065
2006-04-13 16:00:00.000 +0200,Overcast,rain,9.049999999999999,9.049999999999999,0.65,3.2522,177,11.2056,0,1009.98,Overcast throughout the day.,85041,Cobija,Bolivia,Acre,BO,BOL,-11.03334593,-68.73330876
2006-04-13 17:00:00.000 +0200,Overcast,rain,9.183333333333334,9.183333333333334,0.65,3.0107000000000004,170,11.0285,0,1010.05,Overcast throughout the day.,85223,Cochabamba,Bolivia,Cochabamba,BO,BOL,-17.41001097,-66.16997685
2006-04-13 18:00:00.000 +0200,Overcast,rain,9.072222222222221,7.455555555555557,0.7,10.465,172,9.982000000000001,0,1010.1,Overcast throughout the day.,85201,La Paz,Bolivia,La Paz,BO,BOL,-16.49797361,-68.14998519
2006-04-13 19:00:00.000 +0200,Overcast,rain,7.9833333333333325,6.81111111111111,0.75,7.3416,172,9.982000000000001,0,1010.39,Overcast throughout the day.,85242,Oruro,Bolivia,Oruro,BO,BOL,-17.97995034,-67.12999577
2006-04-13 20:00:00.000 +0200,Overcast,rain,8.072222222222223,6.433333333333333,0.75,9.5151,150,9.982000000000001,0,1010.91,Overcast throughout the day.,85293,Potosí,Bolivia,Potosí,BO,BOL,-19.56956907,-65.75002832
2006-04-13 21:00:00.000 +0200,Overcast,rain,7.894444444444446,6.127777777777778,0.82,9.9981,142,9.982000000000001,0,1011.32,Overcast throughout the day.,85245,Santa Cruz,Bolivia,Santa Cruz,BO,BOL,-17.75391762,-63.22599634
2006-04-13 22:00:00.000 +0200,Overcast,rain,7.311111111111109,4.8055555555555545,0.83,13.685,141,11.9784,0,1011.61,Overcast throughout the day.,85364,Tarija,Bolivia,Tarija,BO,BOL,-21.51668537,-64.749986
2006-04-13 23:00:00.000 +0200,Mostly Cloudy,rain,7.33888888888889,5.183333333333333,0.84,11.543700000000001,141,14.168000000000003,0,1011.97,Overcast throughout the day.,85154,Trinidad,Bolivia,El Beni,BO,BOL,-14.83337238,-64.89997685
2006-04-14 00:00:00.000 +0200,Mostly Cloudy,rain,6.622222222222224,4.111111111111111,0.85,12.719000000000001,142,14.9086,0,1012.22,Mostly cloudy throughout the day.,14542,Banja Luka,Bosnia and Herzegovina,Serbian Republic,BA,BIH,44.78040489,17.17997432
2006-04-14 01:00:00.000 +0200,Partly Cloudy,rain,6.066666666666667,3.4111111111111114,0.88,12.8961,130,14.9086,0,1012.74,Mostly cloudy throughout the day.,14654,Sarajevo,Bosnia and Herzegovina,Sarajevo,BA,BIH,43.8500224,18.38300167
2006-04-14 02:00:00.000 +0200,Partly Cloudy,rain,8.338888888888887,8.338888888888887,0.88,0.6923,359,15.005200000000002,0,1015.35,Mostly cloudy throughout the day.,68024,Ghanzi,Botswana,Ghanzi,BW,BWA,-21.69961994,21.63996049
2006-04-14 03:00:00.000 +0200,Mostly Cloudy,rain,5.183333333333333,4.111111111111111,0.91,5.5384,166,9.982000000000001,0,1013.29,Mostly cloudy throughout the day.,68029,Kasane,Botswana,North-West,BW,BWA,-17.80957314,25.15003048
2006-04-14 04:00:00.000 +0200,Mostly Cloudy,rain,3.7222222222222237,2.566666666666665,0.94,5.2003,145,9.982000000000001,0,1013.39,Mostly cloudy throughout the day.,68032,Maun,Botswana,North-West,BW,BWA,-19.98959511,23.42000688
2006-04-14 05:00:00.000 +0200,Mostly Cloudy,rain,4.855555555555557,3.7055555555555566,0.93,5.618900000000001,170,5.9248,0,1013.45,Mostly cloudy throughout the day.,83587,Belo Horizonte,Brazil,Minas Gerais,BR,BRA,-19.91502602,-43.91500452
2006-04-14 06:00:00.000 +0200,Foggy,rain,5.211111111111112,5.211111111111112,0.92,4.7656,178,1.2236,0,1013.4,Mostly cloudy throughout the day.,82193,Belém,Brazil,Pará,BR,BRA,-1.450003236,-48.48002303
2006-04-14 07:00:00.000 +0200,Overcast,rain,6.255555555555555,4.638888888888889,0.92,7.921200000000001,223,7.212800000000001,0,1013.81,Mostly cloudy throughout the day.,82798,João Pessoa,Brazil,Paraíba,BR,BRA,-7.10113513,-34.87607117
2006-04-14 08:00:00.000 +0200,Mostly Cloudy,rain,7.794444444444445,6.0555555555555545,0.87,9.7566,240,10.6743,0,1014.7,Mostly cloudy throughout the day.,82098,Macapá,Brazil,Amapá,BR,BRA,0.033007018,-51.0500212
2006-04-14 09:00:00.000 +0200,Mostly Cloudy,rain,10.050000000000002,10.050000000000002,0.76,9.6922,231,11.2056,0,1014.67,Mostly cloudy throughout the day.,82993,Maceió,Brazil,Alagoas,BR,BRA,-9.619995505,-35.72997441
2006-04-14 10:00:00.000 +0200,Mostly Cloudy,rain,12.200000000000001,12.200000000000001,0.66,14.49,230,9.982000000000001,0,1014.66,Mostly cloudy throughout the day.,83967,Porto Alegre,Brazil,Rio Grande do Sul,BR,BRA,-30.05001463,-51.20001205
2006-04-14 11:00:00.000 +0200,Mostly Cloudy,rain,12.7,12.7,0.63,20.334300000000002,214,11.0285,0,1014.8,Mostly cloudy throughout the day.,83746,Rio de Janeiro,Brazil,Rio de Janeiro,BR,BRA,-22.92502317,-43.22502079
2006-04-14 12:00:00.000 +0200,Partly Cloudy,rain,13.933333333333332,13.933333333333332,0.58,23.5865,222,11.270000000000001,0,1014.47,Mostly cloudy throughout the day.,86210,Salto del Guairá,Brazil,Paraná,BR,BRA,-24.08996499,-54.2699797
2006-04-14 13:00:00.000 +0200,Partly Cloudy,rain,15.094444444444447,15.094444444444447,0.59,22.2985,241,11.270000000000001,0,1014.16,Mostly cloudy throughout the day.,83780,São Paulo,Brazil,São Paulo,BR,BRA,-23.55867959,-46.62501998
2006-04-14 14:00:00.000 +0200,Mostly Cloudy,rain,15.150000000000002,15.150000000000002,0.5,14.715400000000002,235,11.4471,0,1014.07,Mostly cloudy throughout the day.,82579,Teresina,Brazil,Piauí,BR,BRA,-5.095000388,-42.7800092
2006-04-14 15:00:00.000 +0200,Partly Cloudy,rain,16.177777777777777,16.177777777777777,0.44,14.49,238,11.270000000000001,0,1013.34,Mostly cloudy throughout the day.,96315,Bandar Seri Begawan,Brunei,Brunei and Muara,BN,BRN,4.883331115,114.9332841
2006-04-14 16:00:00.000 +0200,Partly Cloudy,rain,16.25,16.25,0.55,14.715400000000002,211,11.270000000000001,0,1012.72,Mostly cloudy throughout the day.,15730,Haskovo,Bulgaria,Haskovo,BG,BGR,41.94378216,25.5632869
2006-04-14 17:00:00.000 +0200,Partly Cloudy,rain,16.29444444444444,16.29444444444444,0.5,19.593700000000002,221,11.4471,0,1012.38,Mostly cloudy throughout the day.,15502,Montana,Bulgaria,Montana,BG,BGR,43.41400203,23.23700161
2006-04-14 18:00:00.000 +0200,Partly Cloudy,rain,16.099999999999998,16.099999999999998,0.56,14.828100000000003,215,11.125100000000002,0,1012.38,Mostly cloudy throughout the day.,15614,Sofia,Bulgaria,Grad Sofiya,BG,BGR,42.68334943,23.31665401
2006-04-14 19:00:00.000 +0200,Partly Cloudy,rain,12.955555555555556,12.955555555555556,0.68,11.9784,224,11.270000000000001,0,1012.72,Mostly cloudy throughout the day.,15552,Varna,Bulgaria,Varna,BG,BGR,43.21564252,27.89528926
2006-04-14 20:00:00.000 +0200,Mostly Cloudy,rain,13.850000000000001,13.850000000000001,0.64,11.559800000000001,231,11.4471,0,1013.42,Mostly cloudy throughout the day.,65510,Bobo Dioulasso,Burkina Faso,Houet,BF,BFA,11.1799752,-4.289981325
2006-04-14 21:00:00.000 +0200,Mostly Cloudy,rain,12.777777777777779,12.777777777777779,0.69,14.2485,358,10.0464,0,1014.41,Mostly cloudy throughout the day.,65505,Dédougou,Burkina Faso,Mou Houn,BF,BFA,12.455001,-3.464000439
2006-04-14 22:00:00.000 +0200,Mostly Cloudy,rain,12.149999999999999,12.149999999999999,0.72,11.253900000000002,8,15.874600000000001,0,1014.89,Mostly cloudy throughout the day.,65507,Fada N'gourma,Burkina Faso,Gourma,BF,BFA,12.05499605,0.360999451
2006-04-14 23:00:00.000 +0200,Mostly Cloudy,rain,10.677777777777777,10.677777777777777,0.81,5.7799000000000005,59,15.005200000000002,0,1014.91,Mostly cloudy throughout the day.,65522,Gaoua,Burkina Faso,Poni,BF,BFA,10.32499811,-3.174002407
2006-04-15 00:00:00.000 +0200,Mostly Cloudy,rain,10.444444444444443,10.444444444444443,0.83,2.6404,63,15.874600000000001,0,1014.75,Mostly cloudy throughout the day.,65503,Ouagadougou,Burkina Faso,Kadiogo,BF,BFA,12.37031598,-1.524723756
2006-04-15 01:00:00.000 +0200,Mostly Cloudy,rain,9.822222222222223,9.466666666666665,0.8,5.313,65,15.874600000000001,0,1015.55,Mostly cloudy throughout the day.,65502,Ouahigouya,Burkina Faso,Yatenga,BF,BFA,13.5704236,-2.419992108
2006-04-15 02:00:00.000 +0200,Mostly Cloudy,rain,11.027777777777779,11.027777777777779,0.74,11.382700000000002,146,14.9569,0,1015.7,Mostly cloudy throughout the day.,65518,Pô,Burkina Faso,Nahouri,BF,BFA,11.16900002,-1.134998478
2006-04-15 03:00:00.000 +0200,Mostly Cloudy,rain,7.138888888888889,7.138888888888889,0.93,3.6547,305,14.9086,0,1016.43,Mostly cloudy throughout the day.,65516,Réo,Burkina Faso,Sanguié,BF,BFA,12.33349214,-2.466944513
2006-04-15 04:00:00.000 +0200,Mostly Cloudy,rain,7.622222222222222,5.644444444444442,0.89,10.867500000000001,327,14.9086,0,1016.56,Mostly cloudy throughout the day.,64387,Bujumbura,Burundi,Unknown,BI,BDI,-3.363812,29.367503
2006-04-15 05:00:00.000 +0200,Mostly Cloudy,rain,7.6277777777777755,6.611111111111111,0.86,6.5205,319,13.379100000000001,0,1017.15,Mostly cloudy throughout the day.,48462,Battambang,Cambodia,Batdâmbâng,KH,KHM,13.10001304,103.2000468
2006-04-15 06:00:00.000 +0200,Mostly Cloudy,rain,7.044444444444444,4.855555555555557,0.86,11.398800000000001,271,9.982000000000001,0,1017.37,Mostly cloudy throughout the day.,48917,Kampot,Cambodia,Kâmpôt,KH,KHM,10.61708966,104.1833459
2006-04-15 07:00:00.000 +0200,Partly Cloudy,rain,8.599999999999998,7.03888888888889,0.84,9.66,297,9.982000000000001,0,1018.25,Mostly cloudy throughout the day.,48501,Koh Kong,Cambodia,Kaôh Kong,KH,KHM,11.61753897,102.9849329
2006-04-15 08:00:00.000 +0200,Partly Cloudy,rain,9.649999999999999,7.383333333333332,0.84,15.955100000000002,289,9.982000000000001,0,1019.24,Mostly cloudy throughout the day.,48991,Phnom Penh,Cambodia,Phnom Penh,KH,KHM,11.55003013,104.9166345
2006-04-15 09:00:00.000 +0200,Partly Cloudy,rain,12.105555555555554,12.105555555555554,0.72,13.1698,310,9.982000000000001,0,1019.83,Mostly cloudy throughout the day.,64910,Buea,Cameroon,Sud-Ouest,CM,CMR,4.155003087,9.231003513
2006-04-15 10:00:00.000 +0200,Partly Cloudy,rain,12.777777777777779,12.777777777777779,0.71,13.1698,301,11.2056,0,1020.51,Mostly cloudy throughout the day.,64860,Garoua,Cameroon,Nord,CM,CMR,9.30001243,13.39002478
2006-04-15 11:00:00.000 +0200,Partly Cloudy,rain,13.81111111111111,13.81111111111111,0.65,9.6761,307,11.4471,0,1020.91,Mostly cloudy throughout the day.,64870,Ngaoundéré,Cameroon,Adamaoua,CM,CMR,7.320365823,13.57998734
2006-04-15 12:00:00.000 +0200,Partly Cloudy,rain,16.016666666666666,16.016666666666666,0.48,11.237800000000002,307,11.270000000000001,0,1020.6,Mostly cloudy throughout the day.,71706,Charlottetown,Canada,Prince Edward Island,CA,CAN,46.24928164,-63.13132512
2006-04-15 13:00:00.000 +0200,Partly Cloudy,rain,17.127777777777776,17.127777777777776,0.47,12.7029,308,11.270000000000001,0,1020.39,Mostly cloudy throughout the day.,71157,Edmonton,Canada,Alberta,CA,CAN,53.55002464,-113.4999819
2006-04-15 14:00:00.000 +0200,Partly Cloudy,rain,17.144444444444446,17.144444444444446,0.43,10.6099,279,11.4471,0,1020.34,Mostly cloudy throughout the day.,71668,Fredericton,Canada,New Brunswick,CA,CAN,45.94999758,-66.63330774
2006-04-15 15:00:00.000 +0200,Mostly Cloudy,rain,17.77777777777778,17.77777777777778,0.4,7.953400000000001,272,11.2056,0,1019.7,Mostly cloudy throughout the day.,71601,Halifax,Canada,Nova Scotia,CA,CAN,44.65002525,-63.60000452
2006-04-15 16:00:00.000 +0200,Mostly Cloudy,rain,17.77777777777778,17.77777777777778,0.37,2.5921000000000003,351,11.2056,0,1018.89,Mostly cloudy throughout the day.,71063,Ottawa,Canada,Ontario,CA,CAN,45.4166968,-75.7000153
2006-04-15 17:00:00.000 +0200,Mostly Cloudy,rain,17.805555555555557,17.805555555555557,0.43,11.012400000000001,175,10.3523,0,1018.48,Mostly cloudy throughout the day.,71578,Quebec City,Canada,Québec,CA,CAN,46.83996909,-71.24561019
2006-04-15 18:00:00.000 +0200,Mostly Cloudy,rain,16.15555555555555,16.15555555555555,0.52,9.193100000000001,172,9.982000000000001,0,1017.87,Mostly cloudy throughout the day.,71863,Regina,Canada,Saskatchewan,CA,CAN,50.45003298,-104.6170099
2006-04-15 19:00:00.000 +0200,Mostly Cloudy,rain,14.049999999999999,14.049999999999999,0.63,9.160900000000002,160,9.982000000000001,0,1017.56,Mostly cloudy throughout the day.,71801,St. John's,Canada,Newfoundland and Labrador,CA,CAN,47.58498822,-52.68100692
2006-04-15 20:00:00.000 +0200,Mostly Cloudy,rain,13.08888888888889,13.08888888888889,0.67,9.2736,138,9.982000000000001,0,1017.38,Mostly cloudy throughout the day.,71508,Toronto,Canada,Ontario,CA,CAN,43.69997988,-79.42002079
2006-04-15 21:00:00.000 +0200,Mostly Cloudy,rain,12.288888888888888,12.288888888888888,0.72,9.450700000000001,141,9.982000000000001,0,1017.58,Mostly cloudy throughout the day.,71200,Victoria,Canada,British Columbia,CA,CAN,48.43328269,-123.3500009
2006-04-15 22:00:00.000 +0200,Overcast,rain,12.777777777777779,12.777777777777779,0.66,11.0768,141,15.826300000000002,0,1017.65,Mostly cloudy throughout the day.,71964,Whitehorse,Canada,Yukon,CA,CAN,60.71671897,-135.0499844
2006-04-15 23:00:00.000 +0200,Overcast,rain,12.727777777777776,12.727777777777776,0.67,13.379100000000001,149,14.9569,0,1017.36,Mostly cloudy throughout the day.,71579,Winnipeg,Canada,Manitoba,CA,CAN,49.88298749,-97.16599186
2006-04-16 00:00:00.000 +0200,Overcast,rain,12.266666666666666,12.266666666666666,0.69,14.1358,151,15.826300000000002,0,1016.8,Mostly cloudy throughout the day.,71162,Yellowknife,Canada,Northwest Territories,CA,CAN,62.44201418,-114.3969814
2006-04-16 01:00:00.000 +0200,Overcast,rain,11.71111111111111,11.71111111111111,0.71,11.3183,158,15.826300000000002,0,1016.64,Mostly cloudy throughout the day.,08589,Praia,Cape Verde,,CV,CPV,14.91669802,-23.51668889
2006-04-16 02:00:00.000 +0200,Partly Cloudy,rain,10.82777777777778,10.82777777777778,0.86,9.177000000000001,259,14.168000000000003,0,1013.13,Mostly cloudy throughout the day.,78384,George Town,Cayman Islands,,KY,CYM,19.28043683,-81.32998173
2006-04-16 03:00:00.000 +0200,Overcast,rain,12.200000000000001,12.200000000000001,0.59,14.168000000000003,141,15.826300000000002,0,1014.79,Mostly cloudy throughout the day.,64650,Bangui,Central African Republic,Bangui,CF,CAF,4.366644306,18.55828813
2006-04-16 04:00:00.000 +0200,Overcast,rain,12.200000000000001,12.200000000000001,0.6,14.296800000000003,151,15.826300000000002,0,1014.25,Mostly cloudy throughout the day.,64600,Berbérati,Central African Republic,Mambéré-Kadéï,CF,CAF,4.249958922,15.7800081
2006-04-16 05:00:00.000 +0200,Overcast,rain,11.688888888888888,11.688888888888888,0.68,13.8299,152,14.9569,0,1013.95,Mostly cloudy throughout the day.,64601,Bouar,Central African Republic,Nana-Mambéré,CF,CAF,5.950010192,15.59996741
2006-04-16 06:00:00.000 +0200,Overcast,rain,11.205555555555556,11.205555555555556,0.77,14.007,132,9.982000000000001,0,1013.63,Mostly cloudy throughout the day.,64754,Am Timan,Chad,Salamat,TD,TCD,11.03329165,20.28329911
2006-04-16 07:00:00.000 +0200,Mostly Cloudy,rain,11.133333333333333,11.133333333333333,0.77,15.488199999999999,150,9.982000000000001,0,1013.27,Mostly cloudy throughout the day.,64753,Faya-Largeau,Chad,Bet,TD,TCD,17.91666994,19.11670365
2006-04-16 08:00:00.000 +0200,Mostly Cloudy,rain,11.43888888888889,11.43888888888889,0.77,13.8782,163,10.3523,0,1013.56,Mostly cloudy throughout the day.,64700,N'Djamena,Chad,Hadjer-Lamis,TD,TCD,12.11309654,15.04914831
2006-04-16 09:00:00.000 +0200,Mostly Cloudy,rain,13.033333333333335,13.033333333333335,0.81,14.457800000000002,209,9.982000000000001,0,1012.85,Mostly cloudy throughout the day.,64750,Sarh,Chad,Mandoul,TD,TCD,9.149969909,18.39002966
2006-04-16 10:00:00.000 +0200,Mostly Cloudy,rain,17.244444444444444,17.244444444444444,0.62,25.0194,221,11.270000000000001,0,1012.15,Mostly cloudy throughout the day.,85442,Antofagasta,Chile,Antofagasta,CL,CHL,-23.64999184,-70.40000289
2006-04-16 11:00:00.000 +0200,Mostly Cloudy,rain,17.73888888888889,17.73888888888889,0.53,27.37,230,11.4471,0,1011.71,Mostly cloudy throughout the day.,85406,Arica,Chile,Arica y Parinacota,CL,CHL,-18.50002195,-70.28998377
2006-04-16 12:00:00.000 +0200,Overcast,rain,17.84444444444445,17.84444444444445,0.56,22.218000000000004,251,11.270000000000001,0,1011.28,Mostly cloudy throughout the day.,85682,Concepción,Chile,Bío-Bío,CL,CHL,-36.83001422,-73.05002202
2006-04-16 13:00:00.000 +0200,Mostly Cloudy,rain,18.86111111111111,18.86111111111111,0.56,23.5382,250,11.270000000000001,0,1010.99,Mostly cloudy throughout the day.,85418,Iquique,Chile,Tarapacá,CL,CHL,-20.24999266,-70.12996769
2006-04-16 14:00:00.000 +0200,Overcast,rain,18.666666666666664,18.666666666666664,0.56,19.8996,240,11.398800000000001,0,1010.93,Mostly cloudy throughout the day.,85488,La Serena,Chile,Coquimbo,CL,CHL,-29.89999795,-71.24997685
2006-04-16 15:00:00.000 +0200,Overcast,rain,17.82222222222222,17.82222222222222,0.56,17.5007,243,11.270000000000001,0,1010.7,Mostly cloudy throughout the day.,85864,Puerto Aisén,Chile,Ais,CL,CHL,-45.3999304,-72.70001754
2006-04-16 16:00:00.000 +0200,Overcast,rain,17.800000000000004,17.800000000000004,0.59,17.693900000000003,281,11.270000000000001,0,1010.52,Mostly cloudy throughout the day.,85799,Puerto Montt,Chile,Los Lagos,CL,CHL,-41.4699894,-72.92997766
2006-04-16 17:00:00.000 +0200,Mostly Cloudy,rain,17.349999999999998,17.349999999999998,0.57,19.561500000000002,295,11.398800000000001,0,1010.69,Mostly cloudy throughout the day.,85934,Punta Arenas,Chile,Magallanes y Antártica Chilena,CL,CHL,-53.16498615,-70.93999577
2006-04-16 18:00:00.000 +0200,Mostly Cloudy,rain,16.06666666666667,16.06666666666667,0.67,21.815500000000004,280,11.2056,0,1010.86,Mostly cloudy throughout the day.,85629,San Fernando,Chile,Libertador General Bernardo O'Higgins,CL,CHL,-34.58002236,-70.98996688
2006-04-16 19:00:00.000 +0200,Mostly Cloudy,rain,14.933333333333334,14.933333333333334,0.73,17.2753,280,11.2056,0,1011.14,Mostly cloudy throughout the day.,85577,Santiago,Chile,Región Metropolitana de Santiago,CL,CHL,-33.45001382,-70.66704085
2006-04-16 20:00:00.000 +0200,Mostly Cloudy,rain,13.922222222222224,13.922222222222224,0.78,11.7691,279,11.286100000000001,0,1011.64,Mostly cloudy throughout the day.,85743,Temuco,Chile,La Araucanía,CL,CHL,-38.73000161,-72.57999903
2006-04-16 21:00:00.000 +0200,Mostly Cloudy,rain,12.755555555555556,12.755555555555556,0.84,11.0446,270,11.0768,0,1012.02,Mostly cloudy throughout the day.,85766,Valdivia,Chile,Los Ríos,CL,CHL,-39.7950012,-73.24502303
2006-04-16 22:00:00.000 +0200,Mostly Cloudy,rain,12.755555555555556,12.755555555555556,0.84,11.0607,277,15.697500000000002,0,1012.21,Mostly cloudy throughout the day.,85574,Valparaíso,Chile,Valparaíso,CL,CHL,-33.04776447,-71.62101363
2006-04-16 23:00:00.000 +0200,Mostly Cloudy,rain,12.372222222222225,12.372222222222225,0.86,7.293300000000001,239,14.876400000000002,0,1012.33,Mostly cloudy throughout the day.,54511,Beijing,China,Beijing,CN,CHN,39.92889223,116.3882857
2006-04-17 00:00:00.000 +0200,Mostly Cloudy,rain,11.183333333333334,11.183333333333334,0.93,6.923,241,15.826300000000002,0,1012.6,Partly cloudy throughout the day.,54161,Changchun,China,Jilin,CN,CHN,43.86500856,125.3399873
2006-04-17 01:00:00.000 +0200,Mostly Cloudy,rain,11.666666666666666,11.666666666666666,0.9,11.1734,242,15.826300000000002,0,1012.8,Partly cloudy throughout the day.,57687,Changsha,China,Hunan,CN,CHN,28.19996991,112.969993
2006-04-17 02:00:00.000 +0200,Partly Cloudy,rain,8.977777777777776,7.3666666666666645,0.95,10.3201,266,6.8425,0,1012.66,Partly cloudy throughout the day.,54342,Fushun,China,Liaoning,CN,CHN,41.86538902,123.8699996
2006-04-17 03:00:00.000 +0200,Mostly Cloudy,rain,10.577777777777776,10.577777777777776,0.93,11.1734,278,14.9086,0,1012.32,Partly cloudy throughout the day.,58847,Fuzhou,China,Fujian,CN,CHN,26.07999595,119.3000459
2006-04-17 04:00:00.000 +0200,Mostly Cloudy,rain,10.533333333333335,10.533333333333335,0.89,14.007,269,14.9086,0,1012.33,Partly cloudy throughout the day.,59287,Guangzhou,China,Guangdong,CN,CHN,23.1449813,113.3250101
2006-04-17 05:00:00.000 +0200,Mostly Cloudy,rain,10.58888888888889,10.58888888888889,0.87,7.293300000000001,269,14.168000000000003,0,1012.55,Partly cloudy throughout the day.,57816,Gui?yang,China,Guizhou,CN,CHN,26.58004295,106.7200386
2006-04-17 06:00:00.000 +0200,Mostly Cloudy,rain,9.983333333333333,9.283333333333335,0.89,6.7298,297,15.826300000000002,0,1012.71,Partly cloudy throughout the day.,59758,Haikou,China,Hainan,CN,CHN,20.05000226,110.3200256
2006-04-17 07:00:00.000 +0200,Mostly Cloudy,rain,11.022222222222224,11.022222222222224,0.86,7.889000000000001,307,9.982000000000001,0,1013.01,Partly cloudy throughout the day.,58457,Hangzhou,China,Zhejiang,CN,CHN,30.24997398,120.1700187
2006-04-17 08:00:00.000 +0200,Partly Cloudy,rain,13.538888888888888,13.538888888888888,0.75,11.8657,305,9.982000000000001,0,1013.23,Partly cloudy throughout the day.,50953,Harbin,China,Heilongjiang,CN,CHN,45.74998395,126.6499849
2006-04-17 09:00:00.000 +0200,Partly Cloudy,rain,13.88888888888889,13.88888888888889,0.68,20.0123,308,11.2056,0,1013.31,Partly cloudy throughout the day.,58321,Hefei,China,Anhui,CN,CHN,31.85003135,117.2800142
2006-04-17 10:00:00.000 +0200,Partly Cloudy,rain,15,15,0.67,17.581200000000003,300,11.2056,0,1013.4,Partly cloudy throughout the day.,53463,Hohhot,China,Nei Mongol,CN,CHN,40.81997479,111.6599955
2006-04-17 11:00:00.000 +0200,Partly Cloudy,rain,17.183333333333334,17.183333333333334,0.57,15.955100000000002,319,11.4471,0,1013.27,Partly cloudy throughout the day.,54823,Jinan,China,Shandong,CN,CHN,36.67498232,116.9950187
2006-04-17 12:00:00.000 +0200,Mostly Cloudy,rain,16.2,16.2,0.62,16.309300000000004,309,11.270000000000001,0,1013.02,Partly cloudy throughout the day.,56778,Kunming,China,Yunnan,CN,CHN,25.06998008,102.6799751
2006-04-17 13:00:00.000 +0200,Mostly Cloudy,rain,17.75,17.75,0.56,17.7744,290,11.2056,0,1013.03,Partly cloudy throughout the day.,55591,Lhasa,China,Xizang,CN,CHN,29.64502382,91.10001013
2006-04-17 14:00:00.000 +0200,Mostly Cloudy,rain,18.40555555555555,18.40555555555555,0.54,19.078500000000002,297,15.359399999999999,0,1012.55,Partly cloudy throughout the day.,58606,Nanchang,China,Jiangxi,CN,CHN,28.67999229,115.8799963
2006-04-17 15:00:00.000 +0200,Partly Cloudy,rain,17.82222222222222,17.82222222222222,0.59,17.5973,319,11.270000000000001,0,1012.03,Partly cloudy throughout the day.,58238,Nanjing,China,Jiangsu,CN,CHN,32.05001914,118.7799743
2006-04-17 16:00:00.000 +0200,Partly Cloudy,rain,17.31111111111111,17.31111111111111,0.57,20.334300000000002,310,11.270000000000001,0,1011.81,Partly cloudy throughout the day.,59431,Nanning,China,Guangxi,CN,CHN,22.81998822,108.3200443
2006-04-17 17:00:00.000 +0200,Partly Cloudy,rain,17.505555555555553,17.505555555555553,0.55,13.7172,316,11.4471,0,1011.33,Partly cloudy throughout the day.,58362,Shanghai,China,Shanghai,CN,CHN,31.21645245,121.4365047
2006-04-17 18:00:00.000 +0200,Mostly Cloudy,rain,17.266666666666666,17.266666666666666,0.54,14.3773,309,9.982000000000001,0,1011.2,Partly cloudy throughout the day.,53772,Taiyuan,China,Shanxi,CN,CHN,37.87501243,112.5450577
2006-04-17 19:00:00.000 +0200,Mostly Cloudy,rain,15.13888888888889,15.13888888888889,0.61,10.8997,310,9.982000000000001,0,1011.5,Partly cloudy throughout the day.,54527,Tianjin,China,Tianjin,CN,CHN,39.13002626,117.2000191
2006-04-17 20:00:00.000 +0200,Mostly Cloudy,rain,13.25,13.25,0.69,4.717300000000001,325,9.982000000000001,0,1011.76,Partly cloudy throughout the day.,57494,Wuhan,China,Hubei,CN,CHN,30.58003135,114.270017
2006-04-17 21:00:00.000 +0200,Partly Cloudy,rain,12.294444444444444,12.294444444444444,0.72,4.6690000000000005,282,9.982000000000001,0,1012.01,Partly cloudy throughout the day.,52866,Xining,China,Gansu,CN,CHN,36.6199986,101.7700048
2006-04-17 22:00:00.000 +0200,Partly Cloudy,rain,10.699999999999998,10.699999999999998,0.79,3.5742000000000007,281,15.826300000000002,0,1012.31,Partly cloudy throughout the day.,53614,Yinchuan,China,Ningxia Hui,CN,CHN,38.46797365,106.2730375
2006-04-17 23:00:00.000 +0200,Partly Cloudy,rain,9.855555555555558,9.38888888888889,0.85,5.7477,274,14.9569,0,1012.51,Partly cloudy throughout the day.,51463,Ürümqi,China,Xinjiang Uygur,CN,CHN,43.80501223,87.57500565
2006-04-18 00:00:00.000 +0200,Partly Cloudy,rain,9.522222222222222,7.861111111111111,0.88,11.270000000000001,280,11.9784,0,1012.52,Partly cloudy until night.,96995,Flying Fish Cove,Christmas Island,Unknown,CX,CXR,-10.426665,105.668672
2006-04-18 01:00:00.000 +0200,Partly Cloudy,rain,8.405555555555557,8.405555555555557,0.92,3.1234,255,11.9784,0,1012.61,Partly cloudy until night.,80099,Arauca,Colombia,Arauca,CO,COL,7.090664082,-70.76163456
2006-04-18 02:00:00.000 +0200,Mostly Cloudy,rain,13.011111111111113,13.011111111111113,0.82,9.6278,46,14.9569,0,1011.27,Partly cloudy until night.,80211,Armenia,Colombia,Quindío,CO,COL,4.534282653,-75.68112757
2006-04-18 03:00:00.000 +0200,Partly Cloudy,rain,7.733333333333334,7.733333333333334,0.96,3.4293,277,4.2987,0,1012.54,Partly cloudy until night.,80028,Barranquilla,Colombia,Atlántico,CO,COL,10.95998863,-74.79996688
2006-04-18 04:00:00.000 +0200,Partly Cloudy,rain,6.1388888888888875,6.1388888888888875,0.96,3.3488,284,4.1216,0,1012.44,Partly cloudy until night.,80222,Bogotá,Colombia,Bogota,CO,COL,4.596423563,-74.08334396
2006-04-18 05:00:00.000 +0200,Partly Cloudy,rain,6.472222222222221,6.472222222222221,0.95,2.9946,283,4.7656,0,1012.62,Partly cloudy until night.,80094,Bucaramanga,Colombia,Santander,CO,COL,7.1300932,-73.12588302
2006-04-18 06:00:00.000 +0200,Foggy,rain,6.627777777777777,6.627777777777777,0.96,3.3005,313,2.9302,0,1012.75,Partly cloudy until night.,80259,Cali,Colombia,Valle del Cauca,CO,COL,3.399959126,-76.49996647
2006-04-18 07:00:00.000 +0200,Clear,rain,8.68888888888889,8.68888888888889,0.93,1.4329,290,5.8443000000000005,0,1012.96,Partly cloudy until night.,80022,Cartagena,Colombia,Bolívar,CO,COL,10.39973859,-75.51439356
2006-04-18 08:00:00.000 +0200,Partly Cloudy,rain,11.994444444444447,11.994444444444447,0.81,2.415,345,9.6117,0,1013.38,Partly cloudy until night.,80097,Cúcuta,Colombia,Norte de Santander,CO,COL,7.920019144,-72.51997685
2006-04-18 09:00:00.000 +0200,Partly Cloudy,rain,13.766666666666667,13.766666666666667,0.78,4.1538,16,9.6761,0,1013.14,Partly cloudy until night.,80214,Ibagué,Colombia,Tolima,CO,COL,4.438913797,-75.2322144
2006-04-18 10:00:00.000 +0200,Partly Cloudy,rain,15.088888888888887,15.088888888888887,0.77,7.3738,332,9.9015,0,1013.33,Partly cloudy until night.,80398,Leticia,Colombia,Amazonas,CO,COL,-4.220015036,-69.93997929
2006-04-18 11:00:00.000 +0200,Partly Cloudy,rain,16.455555555555556,16.455555555555556,0.68,7.8084999999999996,350,11.0768,0,1013.56,Partly cloudy until night.,80110,Medellín,Colombia,Antioquia,CO,COL,6.275003274,-75.57501001
2006-04-18 12:00:00.000 +0200,Partly Cloudy,rain,17.31111111111111,17.31111111111111,0.62,7.3738,330,11.270000000000001,0,1013.61,Partly cloudy until night.,80063,Montería,Colombia,Córdoba,CO,COL,8.757539082,-75.8900037
2006-04-18 13:00:00.000 +0200,Partly Cloudy,rain,17.872222222222224,17.872222222222224,0.64,8.372000000000002,12,11.270000000000001,0,1013.11,Partly cloudy until night.,80315,Neiva,Colombia,Huila,CO,COL,2.931047179,-75.33024459
2006-04-18 14:00:00.000 +0200,Partly Cloudy,rain,19.038888888888884,19.038888888888884,0.47,7.0679,39,11.4471,0,1012.69,Partly cloudy until night.,80210,Pereira,Colombia,Risaralda,CO,COL,4.81038983,-75.67999068
2006-04-18 15:00:00.000 +0200,Partly Cloudy,rain,18.977777777777774,18.977777777777774,0.51,10.867500000000001,3,11.270000000000001,0,1012.2,Partly cloudy until night.,80139,Puerto Carreño,Colombia,Vichada,CO,COL,6.185034606,-67.49302271
2006-04-18 16:00:00.000 +0200,Partly Cloudy,rain,19.00555555555555,19.00555555555555,0.55,4.8139,9,11.2056,0,1011.7,Partly cloudy until night.,80144,Quibdó,Colombia,Chocó,CO,COL,5.690413634,-76.66000838
2006-04-18 17:00:00.000 +0200,Mostly Cloudy,rain,19.01111111111111,19.01111111111111,0.53,4.7978000000000005,33,11.398800000000001,0,1011.4,Partly cloudy until night.,80035,Riohacha,Colombia,La Guajira,CO,COL,11.5403408,-72.90997888
2006-04-18 18:00:00.000 +0200,Mostly Cloudy,rain,17.866666666666664,17.866666666666664,0.64,10.9319,24,11.2056,0,1011.32,Partly cloudy until night.,80001,San Andrés,Colombia,,CO,COL,12.56213711,-81.69032658
2006-04-18 19:00:00.000 +0200,Mostly Cloudy,rain,17.266666666666666,17.266666666666666,0.62,10.851400000000002,33,9.982000000000001,0,1011.23,Partly cloudy until night.,80342,San Juan de Pasto,Colombia,Nariño,CO,COL,1.21360679,-77.28110742
2006-04-18 20:00:00.000 +0200,Mostly Cloudy,rain,16.188888888888886,16.188888888888886,0.61,5.0876,25,10.3523,0,1011.5,Partly cloudy until night.,80009,Santa Marta,Colombia,Magdalena,CO,COL,11.24720624,-74.20165715
2006-04-18 21:00:00.000 +0200,Mostly Cloudy,rain,14.883333333333333,14.883333333333333,0.72,9.177000000000001,32,9.982000000000001,0,1012.05,Partly cloudy until night.,80036,Valledupar,Colombia,Cesar,CO,COL,10.47999208,-73.25000981
2006-04-18 22:00:00.000 +0200,Mostly Cloudy,rain,14.327777777777776,14.327777777777776,0.75,10.9319,31,15.826300000000002,0,1012.15,Partly cloudy until night.,80234,Villavicencio,Colombia,Meta,CO,COL,4.153323994,-73.63499923
2006-04-18 23:00:00.000 +0200,Overcast,rain,14.511111111111111,14.511111111111111,0.75,6.3756,47,14.9569,0,1012.09,Partly cloudy until night.,67005,Moroni,Comoros,Unknown,KM,COM,-11.693126,43.254304
2006-04-19 00:00:00.000 +0200,Overcast,rain,14.372222222222222,14.372222222222222,0.75,6.5366,67,15.826300000000002,0,1011.83,Mostly cloudy until night.,64450,Brazzaville,Congo (Brazzaville),Pool,CG,COG,-4.259185772,15.28468949
2006-04-19 01:00:00.000 +0200,Overcast,rain,14.877777777777778,14.877777777777778,0.72,14.2163,60,15.826300000000002,0,1011.45,Mostly cloudy until night.,64401,Dolisie,Congo (Brazzaville),Niari,CG,COG,-4.179604066,12.67001705
2006-04-19 02:00:00.000 +0200,Foggy,rain,10.405555555555553,10.405555555555553,0.92,3.6064000000000007,144,2.0125,0,1012.05,Mostly cloudy until night.,64459,Impfondo,Congo (Brazzaville),Likouala,CG,COG,1.640376606,18.04002519
2006-04-19 03:00:00.000 +0200,Overcast,rain,12.822222222222221,12.822222222222221,0.83,8.4364,57,11.2056,0,1011.18,Mostly cloudy until night.,64458,Ouésso,Congo (Brazzaville),Sangha,CG,COG,1.609990864,16.05001745
2006-04-19 04:00:00.000 +0200,Overcast,rain,12.799999999999999,12.799999999999999,0.85,14.425600000000003,31,14.9086,0,1010.07,Mostly cloudy until night.,64456,Owando,Congo (Brazzaville),Cuvette,CG,COG,-0.47962319,15.91999955
2006-04-19 05:00:00.000 +0200,Overcast,rain,12.82777777777778,12.82777777777778,0.86,13.894300000000003,12,14.168000000000003,0,1009.83,Mostly cloudy until night.,64405,Sibiti,Congo (Brazzaville),Lékoumou,CG,COG,-3.689608135,13.35002722
2006-04-19 06:00:00.000 +0200,Overcast,rain,12.266666666666666,12.266666666666666,0.85,15.778000000000002,12,11.2056,0,1009.8,Mostly cloudy until night.,64235,Kananga,Congo (Kinshasa),Kasaï-Occidental,CD,COD,-5.890042299,22.40001745
2006-04-19 07:00:00.000 +0200,Overcast,rain,12.266666666666666,12.266666666666666,0.85,15.584800000000001,2,11.270000000000001,0,1009.99,Mostly cloudy until night.,64247,Mbuji-Mayi,Congo (Kinshasa),Kasaï-Oriental,CD,COD,-6.150026429,23.59999589
2006-04-19 08:00:00.000 +0200,Mostly Cloudy,rain,12.183333333333334,12.183333333333334,0.82,12.380900000000002,11,11.0768,0,1010.21,Mostly cloudy until night.,91843,Avarua,Cook Islands,,CK,COK,-21.25003497,-159.7500013
2006-04-19 09:00:00.000 +0200,Overcast,rain,12.17222222222222,12.17222222222222,0.8,20.3826,11,11.270000000000001,0,1010.41,Mostly cloudy until night.,78762,Alajuela,Costa Rica,Alajuela,CR,CRI,10.02002016,-84.23003727
2006-04-19 10:00:00.000 +0200,Overcast,rain,12.711111111111112,12.711111111111112,0.83,22.0892,19,11.270000000000001,0,1010.33,Mostly cloudy until night.,78774,Liberia,Costa Rica,Guanacaste,CR,CRI,10.63375531,-85.433323
2006-04-19 11:00:00.000 +0200,Mostly Cloudy,rain,15.605555555555558,15.605555555555558,0.78,22.3468,18,10.3523,0,1010.43,Mostly cloudy until night.,78767,Limón,Costa Rica,Limón,CR,CRI,10.00002138,-83.03334029
2006-04-19 12:00:00.000 +0200,Mostly Cloudy,rain,16.022222222222226,16.022222222222226,0.78,18.064200000000003,20,11.2056,0,1010.29,Mostly cloudy until night.,14236,Zagreb,Croatia,Grad Zagreb,HR,HRV,45.80000673,15.99999467
2006-04-19 13:00:00.000 +0200,Mostly Cloudy,rain,17.200000000000003,17.200000000000003,0.67,17.6456,48,11.2056,0,1010.1,Mostly cloudy until night.,14445,ibenik,Croatia,ibensko-Kninska,HR,HRV,43.7272222,15.9058333
2006-04-19 14:00:00.000 +0200,Overcast,rain,17.21666666666667,17.21666666666667,0.71,14.0875,46,11.0285,0,1009.96,Mostly cloudy until night.,78367,Guantánamo,Cuba,Guantánamo,CU,CUB,20.1452936,-75.20614364
2006-04-19 15:00:00.000 +0200,Mostly Cloudy,rain,17.82777777777778,17.82777777777778,0.69,13.4113,29,11.2056,0,1009.86,Mostly cloudy until night.,17609,Larnaca,Cyprus,Larnaca,CY,CYP,34.9170031,33.63599757
2006-04-19 16:00:00.000 +0200,Mostly Cloudy,rain,17.82777777777778,17.82777777777778,0.69,14.6188,19,11.2056,0,1009.47,Mostly cloudy until night.,11723,Brno,Czech Republic,Kraj Vysocina,CZ,CZE,49.20039349,16.60998328
2006-04-19 17:00:00.000 +0200,Partly Cloudy,rain,17.733333333333334,17.733333333333334,0.69,9.2414,340,11.0285,0,1009.63,Mostly cloudy until night.,11659,Hradec Králové,Czech Republic,Královéhradecký,CZ,CZE,50.20599617,15.81200153
2006-04-19 18:00:00.000 +0200,Mostly Cloudy,rain,16.272222222222222,16.272222222222222,0.71,23.0713,39,11.2056,0,1009.39,Mostly cloudy until night.,11782,Ostrava,Czech Republic,Moravskoslezský,CZ,CZE,49.83035504,18.24998653
2006-04-19 19:00:00.000 +0200,Overcast,rain,13.166666666666668,13.166666666666668,0.93,3.7674,335,5.216400000000001,0,1011.07,Mostly cloudy until night.,11487,Plzen,Czech Republic,Karlovarský,CZ,CZE,49.74043805,13.36000077
2006-04-19 20:00:00.000 +0200,Overcast,rain,13.255555555555555,13.255555555555555,0.93,3.1395,228,8.05,0,1011.23,Mostly cloudy until night.,11520,Prague,Czech Republic,Prague,CZ,CZE,50.08333701,14.46597978
2006-04-19 21:00:00.000 +0200,Overcast,rain,13.011111111111113,13.011111111111113,0.93,10.3362,274,9.982000000000001,0,1011.35,Mostly cloudy until night.,11464,Ústí nad Labem,Czech Republic,Liberecký,CZ,CZE,50.66299816,14.08100455
2006-04-19 22:00:00.000 +0200,Mostly Cloudy,rain,12.455555555555556,12.455555555555556,0.91,5.796,310,14.9086,0,1011.67,Mostly cloudy until night.,06030,Aalborg,Denmark,Nordjylland,DK,DNK,57.03371381,9.916593382
2006-04-19 23:00:00.000 +0200,Mostly Cloudy,rain,12.488888888888887,12.488888888888887,0.9,9.8854,315,14.586600000000002,0,1011.76,Mostly cloudy until night.,10055,Sorø,Denmark,Sjaælland,DK,DNK,55.43299811,11.5667016
2006-04-02 00:00:00.000 +0200,Mostly Cloudy,rain,9.555555555555557,8.850000000000001,0.8,6.488300000000001,146,15.826300000000002,0,1015.68,Partly cloudy throughout the day.,D1666,Vejle,Denmark,Syddanmark,DK,DNK,55.70900103,9.534996498
2006-04-02 01:00:00.000 +0200,Mostly Cloudy,rain,10.622222222222222,10.622222222222222,0.79,14.023100000000003,160,15.826300000000002,0,1015.41,Partly cloudy throughout the day.,63471,Djibouti,Djibouti,Unknown,DJ,DJI,11.814597,42.845306
2006-04-02 02:00:00.000 +0200,Partly Cloudy,rain,8.722222222222223,8.722222222222223,0.93,4.5724,40,11.398800000000001,0,1014.98,Partly cloudy throughout the day.,71449,Roseau,Dominica,Unknown,DM,DMA,48.771037,-95.769788
2006-04-02 03:00:00.000 +0200,Mostly Cloudy,rain,10.533333333333335,10.533333333333335,0.77,10.770900000000001,143,15.826300000000002,0,1015.18,Partly cloudy throughout the day.,78482,Barahona,Dominican Republic,Barahona,DO,DOM,18.20037355,-71.099986
2006-04-02 04:00:00.000 +0200,Mostly Cloudy,rain,9.444444444444445,8.705555555555556,0.83,6.5366,133,15.826300000000002,0,1014.7,Partly cloudy throughout the day.,78458,Puerto Plata,Dominican Republic,Puerto Plata,DO,DOM,19.7902171,-70.69024747
2006-04-02 05:00:00.000 +0200,Mostly Cloudy,rain,9.888888888888888,9.327777777777776,0.83,6.0858,163,14.9569,0,1014.64,Partly cloudy throughout the day.,78479,Salvaleón de Higüey,Dominican Republic,La Altagracia,DO,DOM,18.61599603,-68.70799749
2006-04-02 06:00:00.000 +0200,Mostly Cloudy,rain,10.366666666666665,10.366666666666665,0.78,10.706500000000002,136,15.826300000000002,0,1014.31,Partly cloudy throughout the day.,78486,Santo Domingo,Dominican Republic,Distrito Nacional,DO,DOM,18.47007285,-69.90008508
2006-04-02 07:00:00.000 +0200,Partly Cloudy,rain,8.88888888888889,7.233333333333336,0.89,10.4972,158,11.2056,0,1014.63,Partly cloudy throughout the day.,97320,Dili,East Timor,Dili,TL,TLS,-8.559388409,125.5794559
2006-04-02 08:00:00.000 +0200,Partly Cloudy,rain,9.97777777777778,8.994444444444444,0.84,8.0017,151,11.0285,0,1014.82,Partly cloudy throughout the day.,84226,Azogues,Ecuador,Cañar,EC,ECU,-2.740002015,-78.84003036
2006-04-02 09:00:00.000 +0200,Mostly Cloudy,rain,12.200000000000001,12.200000000000001,0.73,2.4633000000000003,355,9.982000000000001,0,1014.82,Partly cloudy throughout the day.,84140,Guaranda,Ecuador,Bolivar,EC,ECU,-1.60999347,-79.01001998
2006-04-02 10:00:00.000 +0200,Mostly Cloudy,rain,13.961111111111112,13.961111111111112,0.67,9.305800000000001,123,9.982000000000001,0,1015,Partly cloudy throughout the day.,84270,Loja,Ecuador,Loja,EC,ECU,-3.990003236,-79.21000777
2006-04-02 11:00:00.000 +0200,Mostly Cloudy,rain,14.944444444444445,14.944444444444445,0.67,7.1645,132,10.3523,0,1014.9,Partly cloudy throughout the day.,84135,Portoviejo,Ecuador,Manabi,EC,ECU,-1.060001201,-80.45998316
2006-04-02 12:00:00.000 +0200,Mostly Cloudy,rain,16.183333333333334,16.183333333333334,0.71,11.753,199,9.982000000000001,0,1014.35,Partly cloudy throughout the day.,84008,Puerto Baquerizo Moreno,Ecuador,Galápagos,EC,ECU,-0.900010967,-89.5999679
2006-04-02 13:00:00.000 +0200,Partly Cloudy,rain,16.366666666666667,16.366666666666667,0.61,7.1323,227,11.270000000000001,0,1014.51,Partly cloudy throughout the day.,80370,Tulcán,Ecuador,Carchi,EC,ECU,0.821997038,-77.73200048
2006-04-02 14:00:00.000 +0200,Partly Cloudy,rain,17.372222222222224,17.372222222222224,0.57,3.6225,251,11.4471,0,1014.32,Partly cloudy throughout the day.,62414,Aswan,Egypt,Aswan,EG,EGY,24.08750775,32.8989115
2006-04-02 15:00:00.000 +0200,Partly Cloudy,rain,17.672222222222224,17.672222222222224,0.51,1.7549000000000001,156,11.270000000000001,0,1013.93,Partly cloudy throughout the day.,62318,Damanhur,Egypt,Al Buhayrah,EG,EGY,31.05044191,30.47001583
2006-04-02 16:00:00.000 +0200,Partly Cloudy,rain,17.72222222222222,17.72222222222222,0.53,8.6779,113,11.270000000000001,0,1013.45,Partly cloudy throughout the day.,62463,Hurghada,Egypt,Al Bahr al Ahmar,EG,EGY,27.23000327,33.83001745
2006-04-02 17:00:00.000 +0200,Partly Cloudy,rain,16.238888888888887,16.238888888888887,0.61,2.8336,261,11.398800000000001,0,1013.43,Partly cloudy throughout the day.,62435,Kharga Oasis,Egypt,Al Wadi at Jadid,EG,EGY,25.44000917,30.55001094
2006-04-02 18:00:00.000 +0200,Mostly Cloudy,rain,14.066666666666666,14.066666666666666,0.71,9.2414,357,11.2056,0,1013.58,Partly cloudy throughout the day.,62306,Mersa Matruh,Egypt,Matruh,EG,EGY,31.3504236,27.23000688
2006-04-02 19:00:00.000 +0200,Partly Cloudy,rain,13.955555555555556,13.955555555555556,0.76,7.422100000000001,147,11.2056,0,1013.24,Partly cloudy throughout the day.,62387,Minya,Egypt,Al Minya,EG,EGY,28.09000246,30.74999874
2006-04-02 20:00:00.000 +0200,Partly Cloudy,rain,12.288888888888888,12.288888888888888,0.8,3.5420000000000007,161,11.0285,0,1013.7,Partly cloudy throughout the day.,78663,San Salvador,El Salvador,San Salvador,SV,SLV,13.71000165,-89.20304122
2006-04-02 21:00:00.000 +0200,Partly Cloudy,rain,10.02222222222222,10.02222222222222,0.86,3.1073,149,9.9015,0,1014.14,Partly cloudy throughout the day.,78650,Sonsonate,El Salvador,Sonsonate,SV,SLV,13.7199752,-89.7299858
2006-04-02 22:00:00.000 +0200,Partly Cloudy,rain,9.377777777777778,8.649999999999999,0.86,6.44,190,15.6009,0,1014.34,Partly cloudy throughout the day.,64810,Malabo,Equatorial Guinea,Bioko Norte,GQ,GNQ,3.750015278,8.783277546
2006-04-02 23:00:00.000 +0200,Partly Cloudy,rain,9.416666666666668,9.416666666666668,0.9,4.6046000000000005,138,14.715400000000002,0,1014.6,Partly cloudy throughout the day.,26124,Haapsalu,Estonia,Lääne,EE,EST,58.9430556,23.5413889
2006-04-20 00:00:00.000 +0200,Partly Cloudy,rain,11.827777777777776,11.827777777777776,0.92,3.0268,311,15.826300000000002,0,1011.68,Foggy starting overnight continuing until morning.,26038,Tallinn,Estonia,Harju,EE,EST,59.43387738,24.72804073
2006-04-20 01:00:00.000 +0200,Foggy,rain,10.761111111111111,10.761111111111111,0.91,5.1681,178,0.6118,0,1011.98,Foggy starting overnight continuing until morning.,26233,Viljandi,Estonia,Viljandi,EE,EST,58.3638889,25.59
2006-04-20 02:00:00.000 +0200,Mostly Cloudy,rain,12.155555555555557,12.155555555555557,0.95,2.8497000000000003,298,3.6386,0,1015.64,Foggy starting overnight continuing until morning.,63450,Addis Ababa,Ethiopia,Addis Ababa,ET,ETH,9.033310363,38.70000443
2006-04-20 03:00:00.000 +0200,Foggy,rain,9.67222222222222,9.188888888888888,0.94,5.7155000000000005,123,0.6118,0,1012.26,Foggy starting overnight continuing until morning.,63333,Dessie,Ethiopia,Amhara,ET,ETH,11.12997825,39.63002519
2006-04-20 04:00:00.000 +0200,Foggy,rain,8.15,7.1499999999999995,0.94,6.7620000000000005,10,0.6118,0,1012.63,Foggy starting overnight continuing until morning.,63471,Harar,Ethiopia,Addis Ababa,ET,ETH,9.319959533,42.15002641
2006-04-20 05:00:00.000 +0200,Foggy,rain,10.2,10.2,0.95,5.618900000000001,133,1.1109,0,1012.62,Foggy starting overnight continuing until morning.,63402,Jimma,Ethiopia,Addis Ababa,ET,ETH,7.679982116,36.83004106
2006-04-20 06:00:00.000 +0200,Foggy,rain,10.116666666666667,10.116666666666667,0.99,2.254,127,0.5152,0,1012.85,Foggy starting overnight continuing until morning.,88889,Stanley,Falkland Islands,,FK,FLK,-51.70001097,-57.8499679
2006-04-20 07:00:00.000 +0200,Foggy,rain,10.16111111111111,10.16111111111111,0.99,0.3381,81,0.43470000000000003,0,1013.61,Foggy starting overnight continuing until morning.,91683,Suva,Fiji,Central,FJ,FJI,-18.13301593,178.4417073
2006-04-20 08:00:00.000 +0200,Foggy,rain,11.244444444444447,11.244444444444447,0.98,2.7531000000000003,358,0.6923,0,1013.9,Foggy starting overnight continuing until morning.,02978,Helsinki,Finland,Southern Finland,FI,FIN,60.17556337,24.93412634
2006-04-20 09:00:00.000 +0200,Foggy,rain,12.244444444444444,12.244444444444444,0.99,2.254,152,2.2057,0,1014.31,Foggy starting overnight continuing until morning.,02829,Hämeenlinna,Finland,Tavastia Proper,FI,FIN,60.99699611,24.47199954
2006-04-20 10:00:00.000 +0200,Overcast,rain,13.91111111111111,13.91111111111111,0.92,8.0983,135,4.2021,0,1014.43,Foggy starting overnight continuing until morning.,02935,Jyväskylä,Finland,Central Finland,FI,FIN,62.26034568,25.74999385
2006-04-20 11:00:00.000 +0200,Partly Cloudy,rain,15.616666666666667,15.616666666666667,0.82,2.2862,153,6.3112,0,1014.73,Foggy starting overnight continuing until morning.,02768,Kouvola,Finland,Southern Finland,FI,FIN,60.87600009,26.70900351
2006-04-20 12:00:00.000 +0200,Partly Cloudy,rain,15.072222222222223,15.072222222222223,0.86,3.2844,120,6.3434,0,1014.92,Foggy starting overnight continuing until morning.,02788,Kuopio,Finland,Eastern Finland,FI,FIN,62.89428632,27.69493974
2006-04-20 13:00:00.000 +0200,Partly Cloudy,rain,15.072222222222223,15.072222222222223,0.82,7.5992,162,8.1949,0,1014.73,Foggy starting overnight continuing until morning.,02958,Mikkeli,Finland,Southern Savonia,FI,FIN,61.68999617,27.28500348
2006-04-20 14:00:00.000 +0200,Overcast,rain,14.266666666666667,14.266666666666667,0.87,10.5616,134,6.8908000000000005,0,1014.92,Foggy starting overnight continuing until morning.,02875,Oulu,Finland,Northern Ostrobothnia,FI,FIN,64.99999758,25.47001094
2006-04-20 15:00:00.000 +0200,Mostly Cloudy,rain,16.016666666666666,16.016666666666666,0.81,6.6654,115,7.2772,0,1014.76,Foggy starting overnight continuing until morning.,02812,Rovaniemi,Finland,Lapland,FI,FIN,66.50003522,25.71593909
2006-04-20 16:00:00.000 +0200,Overcast,rain,15.027777777777779,15.027777777777779,0.86,7.711900000000001,139,7.2772,0,1014.37,Foggy starting overnight continuing until morning.,02972,Turku,Finland,Finland Proper,FI,FIN,60.4538668,22.25496171
2006-04-20 17:00:00.000 +0200,Overcast,rain,13.944444444444445,13.944444444444445,0.89,7.2772,152,6.3112,0,1014.83,Foggy starting overnight continuing until morning.,02911,Vaasa,Finland,Western Finland,FI,FIN,63.09998435,21.60001461
2006-04-20 18:00:00.000 +0200,Overcast,rain,12.916666666666666,12.916666666666666,0.95,11.4793,310,4.7495,0,1015.11,Foggy starting overnight continuing until morning.,07761,Ajaccio,France,Corse,FR,FRA,41.92706484,8.728293822
2006-04-20 19:00:00.000 +0200,Overcast,rain,12.894444444444446,12.894444444444446,0.95,5.2808,347,5.216400000000001,0,1015.14,Foggy starting overnight continuing until morning.,07005,Amiens,France,Picardie,FR,FRA,49.90037661,2.300004027
2006-04-20 20:00:00.000 +0200,Overcast,rain,12.399999999999999,12.399999999999999,0.98,2.3506,72,5.828200000000001,0,1015.5,Foggy starting overnight continuing until morning.,07510,Bordeaux,France,Aquitaine,FR,FRA,44.85001304,-0.595013063
2006-04-20 21:00:00.000 +0200,Clear,rain,12.266666666666666,12.266666666666666,0.99,8.05,320,6.1985,0,1015.76,Foggy starting overnight continuing until morning.,07027,Caen,France,Basse-Normandie,FR,FRA,49.18375368,-0.349989259
2006-04-20 22:00:00.000 +0200,Mostly Cloudy,rain,12.222222222222221,12.222222222222221,0.96,6.1985,349,6.1985,0,1016.35,Foggy starting overnight continuing until morning.,07460,Clermont-Ferrand,France,Auvergne,FR,FRA,45.77998212,3.080008096
2006-04-20 23:00:00.000 +0200,Mostly Cloudy,rain,11.25,11.25,0.96,2.7692,335,3.8318,0,1016.38,Foggy starting overnight continuing until morning.,07280,Dijon,France,Bourgogne,FR,FRA,47.33040428,5.030018268
2006-04-21 00:00:00.000 +0200,Mostly Cloudy,rain,11.527777777777779,11.527777777777779,0.96,3.1556,358,4.508,0,1016.43,Foggy in the morning.,07015,Lille,France,Nord-Pas-de-Calais,FR,FRA,50.64996909,3.080008096
2006-04-21 01:00:00.000 +0200,Foggy,rain,11.538888888888891,11.538888888888891,0.96,5.9892,301,3.1234,0,1016.56,Foggy in the morning.,07434,Limoges,France,Limousin,FR,FRA,45.82997906,1.249990599
2006-04-21 02:00:00.000 +0200,Foggy,rain,9.43888888888889,8.850000000000001,0.96,5.9731000000000005,326,1.8032000000000004,0,1017.23,Foggy in the morning.,07480,Lyon,France,Rhône-Alpes,FR,FRA,45.77000856,4.830030475
2006-04-21 03:00:00.000 +0200,Overcast,rain,11.43888888888889,11.43888888888889,0.96,6.279,340,3.8801000000000005,0,1016.17,Foggy in the morning.,07650,Marseille,France,Provence-Alpes-Côte-d'Azur,FR,FRA,43.28997906,5.37501013
2006-04-21 04:00:00.000 +0200,Overcast,rain,11.394444444444442,11.394444444444442,0.96,6.44,350,3.864,0,1016.25,Foggy in the morning.,07643,Montpellier,France,Languedoc-Roussillon,FR,FRA,43.61039878,3.869985716
2006-04-21 05:00:00.000 +0200,Overcast,rain,11.527777777777779,11.527777777777779,0.96,6.423900000000001,332,3.2522,0,1016.13,Foggy in the morning.,07180,Nancy,France,Lorraine,FR,FRA,48.68368085,6.200024372
2006-04-21 06:00:00.000 +0200,Foggy,rain,11.949999999999998,11.949999999999998,0.93,4.83,340,0.6440000000000001,0,1016.17,Foggy in the morning.,07222,Nantes,France,Pays de la Loire,FR,FRA,47.21038576,-1.590016929
2006-04-21 07:00:00.000 +0200,Foggy,rain,11.972222222222221,11.972222222222221,1,9.66,10,1.2558,0,1016.45,Foggy in the morning.,07255,Orléans,France,Centre,FR,FRA,47.90042116,1.900028441
2006-04-21 08:00:00.000 +0200,Foggy,rain,12.633333333333335,12.633333333333335,0.96,7.6636,7,2.3506,0,1016.94,Foggy in the morning.,07149,Paris,France,Île-de-France,FR,FRA,48.86669293,2.333335326
2006-04-21 09:00:00.000 +0200,Overcast,rain,12.755555555555556,12.755555555555556,0.96,7.969500000000001,1,4.025,0,1017.06,Foggy in the morning.,07335,Poitiers,France,Poitou-Charentes,FR,FRA,46.58329226,0.333276529
2006-04-21 10:00:00.000 +0200,Overcast,rain,13.844444444444445,13.844444444444445,0.9,7.921200000000001,30,4.4919,0,1017.45,Foggy in the morning.,07168,Reims,France,Champagne-Ardenne,FR,FRA,49.25039044,4.029975951
2006-04-21 11:00:00.000 +0200,Overcast,rain,13.172222222222224,13.172222222222224,0.94,10.384500000000001,8,6.262900000000001,0,1017.77,Foggy in the morning.,07130,Rennes,France,Bretagne,FR,FRA,48.10002138,-1.670012046
2006-04-21 12:00:00.000 +0200,Mostly Cloudy,rain,15.066666666666666,15.066666666666666,0.86,8.1466,345,6.1985,0,1017.73,Foggy in the morning.,07037,Rouen,France,Haute-Normandie,FR,FRA,49.43040529,1.079975137
2006-04-21 13:00:00.000 +0200,Partly Cloudy,rain,17.244444444444444,17.244444444444444,0.75,7.1645,308,11.270000000000001,0,1017.53,Foggy in the morning.,07190,Strasbourg,France,Alsace,FR,FRA,48.57996625,7.750007282
2006-04-21 14:00:00.000 +0200,Partly Cloudy,rain,16.316666666666666,16.316666666666666,0.76,13.3469,352,11.0285,0,1017.31,Foggy in the morning.,07630,Toulouse,France,Midi-Pyrénées,FR,FRA,43.61995892,1.449926716
2006-04-21 15:00:00.000 +0200,Partly Cloudy,rain,17.383333333333333,17.383333333333333,0.74,13.620600000000001,353,11.270000000000001,0,1016.82,Foggy in the morning.,81405,Cayenne,French Guiana,Unknown,GF,GUF,4.937114,-52.325831
2006-04-21 16:00:00.000 +0200,Mostly Cloudy,rain,15.272222222222224,15.272222222222224,0.76,8.2754,85,11.270000000000001,0,1016.6,Foggy in the morning.,91938,Papeete,French Polynesia,,PF,PYF,-17.53336261,-149.5666694
2006-04-21 17:00:00.000 +0200,Partly Cloudy,rain,17.45555555555556,17.45555555555556,0.72,5.2808,49,11.0768,0,1016.39,Foggy in the morning.,61998,Port-aux-Français,French Southern and Antarctic Lands,Unknown,TF,ATF,-49.353677,70.243567
2006-04-21 18:00:00.000 +0200,Partly Cloudy,rain,16.22222222222222,16.22222222222222,0.77,11.157300000000001,21,11.270000000000001,0,1016.33,Foggy in the morning.,64570,Franceville,Gabon,Haut-Ogooué,GA,GAB,-1.633299541,13.58329464
2006-04-21 19:00:00.000 +0200,Partly Cloudy,rain,15.083333333333334,15.083333333333334,0.82,3.6869,23,11.270000000000001,0,1016.52,Foggy in the morning.,64560,Koulamoutou,Gabon,Ogooué-Lolo,GA,GAB,-1.132916647,12.4833101
2006-04-21 20:00:00.000 +0200,Partly Cloudy,rain,13.994444444444444,13.994444444444444,0.88,1.1431,35,9.6278,0,1016.81,Foggy in the morning.,64500,Libreville,Gabon,Estuaire,GA,GAB,0.38538861,9.457965046
2006-04-21 21:00:00.000 +0200,Partly Cloudy,rain,12.17222222222222,12.17222222222222,0.92,0.6601,30,8.1305,0,1017.34,Foggy in the morning.,64501,Port-Gentil,Gabon,Ogooué-Maritime,GA,GAB,-0.720021953,8.780021931
2006-04-21 22:00:00.000 +0200,Foggy,rain,11.08888888888889,11.08888888888889,0.95,4.8461,56,1.0626000000000002,0,1017.54,Foggy in the morning.,37484,Batumi,Georgia,Ajaria,GE,GEO,41.6000047,41.63000647
2006-04-21 23:00:00.000 +0200,Foggy,rain,11.094444444444443,11.094444444444443,0.95,3.3810000000000002,11,1.7871000000000004,0,1017.43,Foggy in the morning.,37549,Tbilisi,Georgia,Tbilisi,GE,GEO,41.72500999,44.79079545
2006-04-22 00:00:00.000 +0200,Foggy,rain,9.883333333333333,9.883333333333333,0.96,3.3649,349,1.0626000000000002,0,1017.65,Foggy starting overnight continuing until morning.,10384,Berlin,Germany,Berlin,DE,DEU,52.52181866,13.40154862
2006-04-22 01:00:00.000 +0200,Clear,rain,9.355555555555558,8.633333333333333,0.96,6.423900000000001,321,3.3649,0,1017.56,Foggy starting overnight continuing until morning.,10224,Bremen,Germany,Bremen,DE,DEU,53.08000165,8.80002071
2006-04-22 02:00:00.000 +0200,Clear,rain,9.86111111111111,9.86111111111111,0.96,3.2361,319,4.459700000000001,0,1016.16,Foggy starting overnight continuing until morning.,D1051,Dresden,Germany,Sachsen,DE,DEU,51.04997052,13.75000281
2006-04-22 03:00:00.000 +0200,Foggy,rain,8.272222222222222,8.272222222222222,0.99,3.3166,313,1.9159,0,1017.16,Foggy starting overnight continuing until morning.,10400,Düsseldorf,Germany,Nordrhein-Westfalen,DE,DEU,51.22037355,6.779988972
2006-04-22 04:00:00.000 +0200,Foggy,rain,8.866666666666667,8.866666666666667,0.96,2.6243,337,1.7549000000000001,0,1017.15,Foggy starting overnight continuing until morning.,10554,Erfurt,Germany,Thüringen,DE,DEU,50.97005292,11.02996212
2006-04-22 05:00:00.000 +0200,Foggy,rain,8.816666666666666,8.816666666666666,0.96,3.9445000000000006,335,2.3667000000000002,0,1017.28,Foggy starting overnight continuing until morning.,10147,Hamburg,Germany,Hamburg,DE,DEU,53.55002464,9.999999144
2006-04-22 06:00:00.000 +0200,Foggy,rain,7.155555555555556,7.155555555555556,1,1.8515,319,0.2898,0,1017.15,Foggy starting overnight continuing until morning.,10338,Hanover,Germany,Niedersachsen,DE,DEU,52.36697023,9.716657266
2006-04-22 07:00:00.000 +0200,Foggy,rain,8.850000000000001,8.850000000000001,0.99,3.4776000000000002,295,1.7549000000000001,0,1017.36,Foggy starting overnight continuing until morning.,10046,Kiel,Germany,Schleswig-Holstein,DE,DEU,54.33039044,10.13001705
2006-04-22 08:00:00.000 +0200,Foggy,rain,11.177777777777777,11.177777777777777,0.93,2.8819000000000004,285,2.5599000000000003,0,1017.7,Foggy starting overnight continuing until morning.,10361,Magdeburg,Germany,Sachsen-Anhalt,DE,DEU,52.13042137,11.62000362
2006-04-22 09:00:00.000 +0200,Mostly Cloudy,rain,12.388888888888888,12.388888888888888,0.98,3.4293,349,6.295100000000001,0,1017.72,Foggy starting overnight continuing until morning.,D3137,Mainz,Germany,Rheinland-Pfalz,DE,DEU,49.98247246,8.273219156
2006-04-22 10:00:00.000 +0200,Mostly Cloudy,rain,14.144444444444446,14.144444444444446,0.88,4.8783,339,9.982000000000001,0,1017.82,Foggy starting overnight continuing until morning.,10865,Munich,Germany,Bayern,DE,DEU,48.12994204,11.57499345
2006-04-22 11:00:00.000 +0200,Partly Cloudy,rain,17.1,17.1,0.72,3.059,308,11.0768,0,1017.77,Foggy starting overnight continuing until morning.,10379,Potsdam,Germany,Brandenburg,DE,DEU,52.40040489,13.06999263
2006-04-22 12:00:00.000 +0200,Partly Cloudy,rain,18.93888888888889,18.93888888888889,0.64,4.2021,306,11.270000000000001,0,1017.3,Foggy starting overnight continuing until morning.,D6217,Saarbrücken,Germany,Saarland,DE,DEU,49.25039044,6.970003213
2006-04-22 13:00:00.000 +0200,Partly Cloudy,rain,17.916666666666668,17.916666666666668,0.68,4.0894,6,11.270000000000001,0,1016.9,Foggy starting overnight continuing until morning.,10162,Schwerin,Germany,Mecklenburg-Vorpommern,DE,DEU,53.63330408,11.41669861
2006-04-22 14:00:00.000 +0200,Partly Cloudy,rain,19.983333333333334,19.983333333333334,0.53,1.2236,72,11.141200000000001,0,1016.4,Foggy starting overnight continuing until morning.,10739,Stuttgart,Germany,Baden-Württemberg,DE,DEU,48.77997988,9.199996296
2006-04-22 15:00:00.000 +0200,Partly Cloudy,rain,20.07222222222222,20.07222222222222,0.62,9.064300000000001,352,11.270000000000001,0,1015.9,Foggy starting overnight continuing until morning.,D5541,Wiesbaden,Germany,Hessen,DE,DEU,50.08039146,8.250028441
2006-04-22 16:00:00.000 +0200,Partly Cloudy,rain,20.07222222222222,20.07222222222222,0.56,9.4829,2,11.270000000000001,0,1015.29,Foggy starting overnight continuing until morning.,65472,Accra,Ghana,Greater Accra,GH,GHA,5.550034606,-0.21671574
2006-04-22 17:00:00.000 +0200,Partly Cloudy,rain,20.083333333333336,20.083333333333336,0.58,7.486500000000001,15,11.398800000000001,0,1014.9,Foggy starting overnight continuing until morning.,65401,Bolgatanga,Ghana,Upper East,GH,GHA,10.79038658,-0.84998458
2006-04-22 18:00:00.000 +0200,Partly Cloudy,rain,19.08888888888889,19.08888888888889,0.63,9.1287,23,11.2056,0,1014.68,Foggy starting overnight continuing until morning.,65453,Ho,Ghana,Volta,GH,GHA,6.600409769,0.46998653
2006-04-22 19:00:00.000 +0200,Partly Cloudy,rain,17.45,17.45,0.62,7.567000000000001,24,11.2056,0,1014.78,Foggy starting overnight continuing until morning.,65459,Koforidua,Ghana,Eastern,GH,GHA,6.090415058,-0.260020591
2006-04-22 20:00:00.000 +0200,Partly Cloudy,rain,15.56666666666667,15.56666666666667,0.74,0.5152,116,9.982000000000001,0,1015.04,Foggy starting overnight continuing until morning.,65442,Kumasi,Ghana,Ashanti,GH,GHA,6.689990864,-1.630014487
2006-04-22 21:00:00.000 +0200,Clear,rain,12.494444444444447,12.494444444444447,0.91,3.9445000000000006,197,9.982000000000001,0,1015.51,Foggy starting overnight continuing until morning.,65467,Sekondi-Takoradi,Ghana,Western,GH,GHA,4.943275776,-1.704015138
2006-04-22 22:00:00.000 +0200,Clear,rain,12.244444444444444,12.244444444444444,0.89,1.5295,140,15.826300000000002,0,1015.72,Foggy starting overnight continuing until morning.,65439,Sunyani,Ghana,Brong Ahafo,GH,GHA,7.335998991,-2.336003416
2006-04-22 23:00:00.000 +0200,Clear,rain,11.416666666666664,11.416666666666664,0.92,2.9624,275,14.9569,0,1015.79,Foggy starting overnight continuing until morning.,65418,Tamale,Ghana,Northern,GH,GHA,9.400419738,-0.83998519
2006-04-23 00:00:00.000 +0200,Clear,rain,10.555555555555555,10.555555555555555,0.95,6.0375000000000005,290,14.812,0,1015.83,Foggy in the morning.,65404,Wa,Ghana,Upper West,GH,GHA,10.06040529,-2.500013063
2006-04-23 01:00:00.000 +0200,Clear,rain,10.466666666666669,10.466666666666669,0.93,3.0751,270,9.8049,0,1015.95,Foggy in the morning.,08495,Gibraltar,Gibraltar,Gibraltar,GI,GIB,36.13243495,-5.37807483
2006-04-23 02:00:00.000 +0200,Partly Cloudy,rain,10.250000000000002,10.250000000000002,0.95,5.2969,278,4.7495,0,1017.13,Foggy in the morning.,16716,Athens,Greece,Attiki,GR,GRC,37.98332623,23.73332108
2006-04-23 03:00:00.000 +0200,Clear,rain,9.355555555555558,9.355555555555558,0.96,1.5295,100,4.025,0,1015.82,Foggy in the morning.,16723,Chios,Greece,Voreio Aigaio,GR,GRC,38.36810895,26.1358101
2006-04-23 04:00:00.000 +0200,Foggy,rain,8.311111111111112,8.311111111111112,0.96,3.22,300,2.0286,0,1015.82,Foggy in the morning.,16641,Corfu,Greece,Ionioi Nisoi,GR,GRC,39.61542299,19.9147428
2006-04-23 05:00:00.000 +0200,Foggy,rain,8.81111111111111,8.81111111111111,0.96,3.3971,333,1.7388000000000001,0,1015.89,Foggy in the morning.,16754,Heraklion,Greece,Kriti,GR,GRC,35.32501304,25.13049678
2006-04-23 06:00:00.000 +0200,Foggy,rain,8.733333333333333,7.933333333333334,0.93,6.3434,304,0.7889,0,1015.83,Foggy in the morning.,16648,Larissa,Greece,Thessalia,GR,GRC,39.63040916,22.42001623
2006-04-23 07:00:00.000 +0200,Partly Cloudy,rain,11.93333333333333,11.93333333333333,0.93,11.270000000000001,140,9.8049,0,1016.12,Foggy in the morning.,16622,Polygyros,Greece,Kentriki Makedonia,GR,GRC,40.38100213,23.45300148
2006-04-23 08:00:00.000 +0200,Partly Cloudy,rain,14.516666666666667,14.516666666666667,0.84,1.7066000000000001,129,9.5473,0,1016.23,Foggy in the morning.,16726,Tripoli,Greece,Peloponnisos,GR,GRC,37.50914329,22.37939856
2006-04-23 09:00:00.000 +0200,Partly Cloudy,rain,18.733333333333334,18.733333333333334,0.68,3.22,300,9.982000000000001,0,1016.23,Foggy in the morning.,04250,Nuuk,Greenland,Kommuneqarfik Sermersooq,GL,GRL,64.19828147,-51.73265879
2006-04-23 10:00:00.000 +0200,Partly Cloudy,rain,20.02777777777778,20.02777777777778,0.6,7.245,160,9.982000000000001,0,1016.38,Foggy in the morning.,D6217,St. George's,Grenada,Unknown,GD,GRD,48.658138,6.928099
2006-04-23 11:00:00.000 +0200,Partly Cloudy,rain,21.03888888888889,21.03888888888889,0.55,6.488300000000001,209,10.0303,0,1016.66,Foggy in the morning.,91212,Hagåtña,Guam,,GU,GUM,13.4700163,144.750017
2006-04-23 12:00:00.000 +0200,Partly Cloudy,rain,20.738888888888887,20.738888888888887,0.46,6.5044,179,15.874600000000001,0,1016.58,Foggy in the morning.,76903,San Marcos,Guatemala,San Marcos,GT,GTM,14.96600106,-91.79999952
2006-04-23 13:00:00.000 +0200,Partly Cloudy,rain,22.31666666666667,22.31666666666667,0.48,7.5348,235,11.270000000000001,0,1016.27,Foggy in the morning.,07020,St. Peter Port,Guernsey,Unknown,GG,GGY,49.456814,-2.538998
2006-04-23 14:00:00.000 +0200,Partly Cloudy,rain,22.11111111111111,22.11111111111111,0.5,6.4561,145,11.4471,0,1015.96,Foggy in the morning.,61816,Boké,Guinea,Boke,GN,GIN,10.93998985,-14.29999048
2006-04-23 15:00:00.000 +0200,Partly Cloudy,rain,22.733333333333334,22.733333333333334,0.38,1.0143,262,10.0464,0,1015.34,Foggy in the morning.,61832,Conakry,Guinea,Conakry,GN,GIN,9.531522846,-13.68023503
2006-04-23 16:00:00.000 +0200,Partly Cloudy,rain,22.77777777777778,22.77777777777778,0.37,5.184200000000001,90,10.0464,0,1014.7,Foggy in the morning.,61833,Faranah,Guinea,Faranah,GN,GIN,10.04040651,-10.75000045
2006-04-23 17:00:00.000 +0200,Partly Cloudy,rain,21.216666666666665,21.216666666666665,0.41,7.2772,58,11.4471,0,1015.2,Foggy in the morning.,61829,Kankan,Guinea,Kankan,GN,GIN,10.38999758,-9.310010825
2006-04-23 18:00:00.000 +0200,Partly Cloudy,rain,20.18333333333333,20.18333333333333,0.45,1.4812,179,10.0464,0,1014.87,Foggy in the morning.,61818,Kindia,Guinea,Kindia,GN,GIN,10.06001772,-12.86997441
2006-04-23 19:00:00.000 +0200,Partly Cloudy,rain,18.011111111111113,18.011111111111113,0.68,0.32200000000000006,157,9.982000000000001,0,1014.78,Foggy in the morning.,61809,Labé,Guinea,Labe,GN,GIN,11.31999249,-12.3000092
2006-04-23 20:00:00.000 +0200,Partly Cloudy,rain,17.422222222222224,17.422222222222224,0.65,0.5313000000000001,139,9.982000000000001,0,1015.54,Foggy in the morning.,61699,Mali,Guinea,Labe,GN,GIN,12.08400302,-12.30100143
2006-04-23 21:00:00.000 +0200,Partly Cloudy,rain,13.961111111111112,13.961111111111112,0.82,0,0,9.982000000000001,0,1016.01,Foggy in the morning.,61820,Mamou,Guinea,Mamou,GN,GIN,10.38038576,-12.1000214
2006-04-23 22:00:00.000 +0200,Partly Cloudy,rain,13.28888888888889,13.28888888888889,0.89,2.8819000000000004,329,15.826300000000002,0,1016.52,Foggy in the morning.,61849,Nzérékoré,Guinea,Nzerekore,GN,GIN,7.760003071,-8.829988445
2006-04-23 23:00:00.000 +0200,Partly Cloudy,rain,12.322222222222223,12.322222222222223,0.89,2.4794,262,9.982000000000001,0,1016.96,Foggy in the morning.,61766,Bissau,Guinea Bissau,Bissau,GW,GNB,11.86502382,-15.59836084
2006-04-24 00:00:00.000 +0200,Partly Cloudy,rain,11.116666666666665,11.116666666666665,0.95,3.1717,268,6.295100000000001,0,1017.04,Partly cloudy until evening.,61769,Bolama,Guinea Bissau,Bolama,GW,GNB,11.58295303,-15.48280399
2006-04-24 01:00:00.000 +0200,Partly Cloudy,rain,10.533333333333335,10.533333333333335,0.95,11.270000000000001,280,6.295100000000001,0,1017.33,Partly cloudy until evening.,81001,Georgetown,Guyana,East Berbice-Corentyne,GY,GUY,6.801973693,-58.16702865
2006-04-24 02:00:00.000 +0200,Clear,rain,12.383333333333333,12.383333333333333,0.8,4.6207,172,14.168000000000003,0,1019.59,Partly cloudy until evening.,78482,Port-au-Prince,Haiti,Unknown,HT,HTI,18.547327,-72.339593
2006-04-24 03:00:00.000 +0200,Partly Cloudy,rain,9.86111111111111,9.86111111111111,0.96,3.0751,273,3.8318,0,1017.25,Partly cloudy until evening.,78705,La Ceiba,Honduras,Atlántida,HN,HND,15.7631063,-86.79698653
2006-04-24 04:00:00.000 +0200,Partly Cloudy,rain,8.872222222222222,8.872222222222222,0.95,1.5295,320,3.3649,0,1017.42,Partly cloudy until evening.,78711,Puerto Lempira,Honduras,Gracias a Dios,HN,HND,15.26202578,-83.77164148
2006-04-24 05:00:00.000 +0200,Partly Cloudy,rain,8.672222222222222,8.672222222222222,0.94,3.6386,317,4.2826,0,1017.74,Partly cloudy until evening.,78708,San Pedro Sula,Honduras,Cortés,HN,HND,15.50002159,-88.02998621
2006-04-24 06:00:00.000 +0200,Foggy,rain,7.688888888888891,7.688888888888891,1,0,0,0.7406,0,1018.13,Partly cloudy until evening.,78720,Tegucigalpa,Honduras,Francisco Morazán,HN,HND,14.1020449,-87.21752934
2006-04-24 07:00:00.000 +0200,Clear,rain,10.911111111111111,10.911111111111111,0.99,1.61,210,4.1216,0,1018.62,Partly cloudy until evening.,94855,City of Victoria,Hong Kong,Unknown,HK,HKG,-36.59861,144.678005
2006-04-24 08:00:00.000 +0200,Clear,rain,14.83888888888889,14.83888888888889,0.82,2.6565,193,8.3398,0,1019.08,Partly cloudy until evening.,12843,Budapest,Hungary,Budapest,HU,HUN,47.50000633,19.08332068
2006-04-24 09:00:00.000 +0200,Clear,rain,18.8,18.8,0.65,1.5295,140,9.982000000000001,0,1019.11,Partly cloudy until evening.,12882,Debrecen,Hungary,Hajdú-Bihar,HU,HUN,47.53046958,21.63003861
2006-04-24 10:00:00.000 +0200,Clear,rain,21.094444444444445,21.094444444444445,0.49,4.8783,199,9.982000000000001,0,1019.5,Partly cloudy until evening.,12772,Miskolc,Hungary,Borsod-Abaúj-Zemplén,HU,HUN,48.10040896,20.78001298
2006-04-24 11:00:00.000 +0200,Partly Cloudy,rain,22.027777777777782,22.027777777777782,0.49,4.2826,226,11.0285,0,1019.86,Partly cloudy until evening.,12942,Pécs,Hungary,Baranya,HU,HUN,46.08042889,18.2200142
2006-04-24 12:00:00.000 +0200,Partly Cloudy,rain,22.82777777777778,22.82777777777778,0.47,3.6225,188,11.2056,0,1019.79,Partly cloudy until evening.,12982,Szeged,Hungary,Csongrád,HU,HUN,46.25039268,20.15002559
2006-04-24 13:00:00.000 +0200,Partly Cloudy,rain,22.916666666666668,22.916666666666668,0.37,4.5563,292,9.982000000000001,0,1019.47,Partly cloudy until evening.,11858,Tatabánya,Hungary,Komárom-Esztergom,HU,HUN,47.54999718,18.43299957
2006-04-24 14:00:00.000 +0200,Partly Cloudy,rain,23.916666666666668,23.916666666666668,0.37,6.295100000000001,154,10.3523,0,1019.25,Partly cloudy until evening.,12925,Zalaegerszeg,Hungary,Zala,HU,HUN,46.84400103,16.83999959
2006-04-24 15:00:00.000 +0200,Partly Cloudy,rain,23.911111111111115,23.911111111111115,0.4,2.5599000000000003,333,9.982000000000001,0,1018.89,Partly cloudy until evening.,04030,Reykjavík,Iceland,Suðurnes,IS,ISL,64.15002362,-21.95001449
2006-04-24 16:00:00.000 +0200,Partly Cloudy,rain,23.93333333333333,23.93333333333333,0.37,4.347,178,9.982000000000001,0,1018.6,Partly cloudy until evening.,04048,Selfoss,Iceland,Biskupstungnahreppur,IS,ISL,63.93342185,-20.99694605
2006-04-24 17:00:00.000 +0200,Partly Cloudy,rain,23.916666666666668,23.916666666666668,0.32,1.1753,205,10.3523,0,1018.67,Partly cloudy until evening.,42724,Agartala,India,Tripura,IN,IND,23.83540428,91.27999914
2006-04-24 18:00:00.000 +0200,Partly Cloudy,rain,22.82222222222222,22.82222222222222,0.44,3.1234,214,9.982000000000001,0,1018.59,Partly cloudy until evening.,42618,Aizawl,India,Mizoram,IN,IND,23.71039899,92.72001461
2006-04-24 19:00:00.000 +0200,Partly Cloudy,rain,21.227777777777774,21.227777777777774,0.48,0.4025,181,9.982000000000001,0,1018.67,Partly cloudy until evening.,43295,Bangalore,India,Karnataka,IN,IND,12.96999514,77.56000972
2006-04-24 20:00:00.000 +0200,Partly Cloudy,rain,19.07777777777778,19.07777777777778,0.51,2.6887,185,9.982000000000001,0,1019.22,Partly cloudy until evening.,42667,Bhopal,India,Madhya Pradesh,IN,IND,23.24998781,77.40999304
2006-04-24 21:00:00.000 +0200,Partly Cloudy,rain,17.061111111111114,17.061111111111114,0.63,1.5778,228,9.982000000000001,0,1019.88,Partly cloudy until evening.,42971,Bhubaneswar,India,Orissa,IN,IND,20.27042808,85.82736039
2006-04-24 22:00:00.000 +0200,Clear,rain,14.905555555555553,14.905555555555553,0.72,3.7513000000000005,136,15.826300000000002,0,1019.91,Partly cloudy until evening.,42105,Chandigarh,India,Chandigarh,IN,IND,30.71999697,76.78000565
2006-04-24 23:00:00.000 +0200,Clear,rain,13.083333333333332,13.083333333333332,0.87,3.4132000000000002,185,14.9569,0,1020.02,Partly cloudy until evening.,43279,Chennai,India,Tamil Nadu,IN,IND,13.08998781,80.27999874
2006-04-25 00:00:00.000 +0200,Clear,rain,12.711111111111112,12.711111111111112,0.89,3.2522,169,15.826300000000002,0,1020.11,Partly cloudy starting in the morning.,42840,Daman,India,Dadra and Nagar Haveli,IN,IND,20.41700828,72.85001298
2006-04-25 01:00:00.000 +0200,Clear,rain,12.127777777777776,12.127777777777776,0.89,3.1717,148,14.9086,0,1020.12,Partly cloudy starting in the morning.,42111,Dehradun,India,Uttaranchal,IN,IND,30.32040895,78.05000565
2006-04-25 02:00:00.000 +0200,Clear,rain,11.81111111111111,11.81111111111111,0.84,4.9910000000000005,68,14.9569,0,1018.38,Partly cloudy starting in the morning.,42410,Dispur,India,Assam,IN,IND,26.14402305,91.76663611
2006-04-25 03:00:00.000 +0200,Clear,rain,12.016666666666667,12.016666666666667,0.8,6.262900000000001,169,14.9086,0,1019.91,Partly cloudy starting in the morning.,42647,Gandhinagar,India,Dadra and Nagar Haveli,IN,IND,23.30039817,72.63994828
2006-04-25 04:00:00.000 +0200,Clear,rain,12.044444444444444,12.044444444444444,0.8,6.423900000000001,187,14.812,0,1020.03,Partly cloudy starting in the morning.,43128,Hyderabad,India,Andhra Pradesh,IN,IND,17.39998313,78.47995357
2006-04-25 05:00:00.000 +0200,Partly Cloudy,rain,10.627777777777778,10.627777777777778,0.86,9.708300000000001,151,14.0875,0,1020.39,Partly cloudy starting in the morning.,42623,Imphal,India,Manipur,IN,IND,24.79997072,93.95001705
2006-04-25 06:00:00.000 +0200,Clear,rain,9.911111111111113,8.68888888888889,0.99,9.1448,141,6.118,0,1020.6,Partly cloudy starting in the morning.,42309,Itanagar,India,Arunachal Pradesh,IN,IND,27.10039878,93.61660071
2006-04-25 07:00:00.000 +0200,Mostly Cloudy,rain,12.555555555555555,12.555555555555555,0.9,7.7440999999999995,169,9.9015,0,1020.81,Partly cloudy starting in the morning.,42348,Jaipur,India,Rajasthan,IN,IND,26.92113324,75.80998734
2006-04-25 08:00:00.000 +0200,Partly Cloudy,rain,15.005555555555553,15.005555555555553,0.78,8.758400000000002,154,9.9015,0,1021.01,Partly cloudy starting in the morning.,43311,Kavaratti,India,Lakshadweep,IN,IND,10.56257331,72.63686717
2006-04-25 09:00:00.000 +0200,Partly Cloudy,rain,17.33888888888889,17.33888888888889,0.74,12.187700000000001,150,9.982000000000001,0,1020.94,Partly cloudy starting in the morning.,42807,Kolkata,India,West Bengal,IN,IND,22.4949693,88.32467566
2006-04-25 10:00:00.000 +0200,Partly Cloudy,rain,19.099999999999998,19.099999999999998,0.67,12.6224,150,9.982000000000001,0,1020.66,Partly cloudy starting in the morning.,42369,Lucknow,India,Uttar Pradesh,IN,IND,26.85503908,80.91499874
2006-04-25 11:00:00.000 +0200,Partly Cloudy,rain,21.261111111111106,21.261111111111106,0.57,9.9176,147,10.3523,0,1020.53,Partly cloudy starting in the morning.,43003,Mumbai,India,Maharashtra,IN,IND,19.01699038,72.8569893
2006-04-25 12:00:00.000 +0200,Partly Cloudy,rain,22.41111111111111,22.41111111111111,0.54,11.4471,168,11.2056,0,1020.16,Partly cloudy starting in the morning.,42182,New Delhi,India,Delhi,IN,IND,28.60002301,77.19998002
2006-04-25 13:00:00.000 +0200,Mostly Cloudy,rain,22.938888888888894,22.938888888888894,0.5,8.5491,155,11.2056,0,1019.95,Partly cloudy starting in the morning.,43192,Panjim,India,Goa,IN,IND,15.491997,73.81800065
2006-04-25 14:00:00.000 +0200,Mostly Cloudy,rain,23.927777777777774,23.927777777777774,0.47,11.3022,153,11.398800000000001,0,1019.43,Partly cloudy starting in the morning.,42492,Patna,India,Bihar,IN,IND,25.62495913,85.13003861
2006-04-25 15:00:00.000 +0200,Mostly Cloudy,rain,23.96111111111111,23.96111111111111,0.47,8.3076,142,9.982000000000001,0,1018.97,Partly cloudy starting in the morning.,43329,Pondicherry,India,Puducherry,IN,IND,11.93499371,79.83000037
2006-04-25 16:00:00.000 +0200,Mostly Cloudy,rain,23.96111111111111,23.96111111111111,0.38,8.5813,150,9.982000000000001,0,1018.28,Partly cloudy starting in the morning.,43333,Port Blair,India,Andaman and Nicobar,IN,IND,11.66702557,92.73598262
2006-04-25 17:00:00.000 +0200,Mostly Cloudy,rain,23.111111111111107,23.111111111111107,0.42,10.706500000000002,145,10.3523,0,1017.97,Partly cloudy starting in the morning.,42701,Ranchi,India,Jharkhand,IN,IND,23.37000633,85.33002641
2006-04-25 18:00:00.000 +0200,Mostly Cloudy,rain,22.82222222222222,22.82222222222222,0.44,12.4936,178,9.982000000000001,0,1017.68,Partly cloudy starting in the morning.,42516,Shillong,India,Meghalaya,IN,IND,25.57049217,91.8800142
2006-04-25 19:00:00.000 +0200,Mostly Cloudy,rain,21.11111111111111,21.11111111111111,0.47,5.216400000000001,137,9.982000000000001,0,1017.89,Partly cloudy starting in the morning.,42083,Shimla,India,Himachal Pradesh,IN,IND,31.10002545,77.16659704
2006-04-25 20:00:00.000 +0200,Mostly Cloudy,rain,18.188888888888886,18.188888888888886,0.58,4.8622000000000005,95,10.3523,0,1017.96,Partly cloudy starting in the morning.,42027,Srinagar,India,Jammu and Kashmir,IN,IND,34.09997154,74.81500932
2006-04-25 21:00:00.000 +0200,Mostly Cloudy,rain,16.016666666666666,16.016666666666666,0.72,4.6046000000000005,50,9.982000000000001,0,1018.31,Partly cloudy starting in the morning.,43371,Thiruvananthapuram,India,Kerala,IN,IND,8.499983743,76.95002112
2006-04-25 22:00:00.000 +0200,Partly Cloudy,rain,15.466666666666669,15.466666666666669,0.72,6.44,80,15.826300000000002,0,1018.6,Partly cloudy starting in the morning.,97724,Ambon,Indonesia,Maluku,ID,IDN,-3.716686586,128.2000195
2006-04-25 23:00:00.000 +0200,Partly Cloudy,rain,14.605555555555554,14.605555555555554,0.76,6.745900000000001,83,14.9569,0,1018.65,Partly cloudy starting in the morning.,96011,Banda Aceh,Indonesia,Aceh,ID,IDN,5.549982929,95.32001094
2006-04-26 00:00:00.000 +0200,Clear,rain,13.311111111111112,13.311111111111112,0.82,3.5420000000000007,73,15.826300000000002,0,1018.44,Mostly cloudy starting overnight continuing until night.,96295,Bandarlampung,Indonesia,Lampung,ID,IDN,-5.449604066,105.3000219
2006-04-26 01:00:00.000 +0200,Clear,rain,12.733333333333334,12.733333333333334,0.83,3.0751,70,15.826300000000002,0,1018.23,Mostly cloudy starting overnight continuing until night.,96751,Bandung,Indonesia,Jawa Barat,ID,IDN,-6.950029278,107.5700126
2006-04-26 02:00:00.000 +0200,Partly Cloudy,rain,13.788888888888888,13.788888888888888,0.77,6.0858,50,14.9569,0,1014.58,Mostly cloudy starting overnight continuing until night.,96685,Banjarmasin,Indonesia,Kalimantan Selatan,ID,IDN,-3.329991843,114.5800756
2006-04-26 03:00:00.000 +0200,Partly Cloudy,rain,10.577777777777776,10.577777777777776,0.88,6.44,190,15.826300000000002,0,1018.11,Mostly cloudy starting overnight continuing until night.,96253,Bengkulu,Indonesia,Bengkulu,ID,IDN,-3.800040671,102.2699743
2006-04-26 04:00:00.000 +0200,Partly Cloudy,rain,10.483333333333333,10.483333333333333,0.92,3.22,340,15.4721,0,1017.73,Mostly cloudy starting overnight continuing until night.,97230,Denpasar,Indonesia,Bali,ID,IDN,-8.650028871,115.2199849
2006-04-26 05:00:00.000 +0200,Partly Cloudy,rain,10.288888888888891,10.288888888888891,0.91,3.7513000000000005,48,14.876400000000002,0,1017.7,Mostly cloudy starting overnight continuing until night.,96745,Jakarta,Indonesia,Jakarta Raya,ID,IDN,-6.174417705,106.8294376
2006-04-26 06:00:00.000 +0200,Clear,rain,9.972222222222223,9.972222222222223,0.92,1.5617,106,10.980200000000002,0,1017.62,Mostly cloudy starting overnight continuing until night.,96195,Jambi,Indonesia,Jambi,ID,IDN,-1.589994691,103.6100476
2006-04-26 07:00:00.000 +0200,Mostly Cloudy,rain,13.638888888888888,13.638888888888888,0.9,2.7048,193,9.8049,0,1017.54,Mostly cloudy starting overnight continuing until night.,97698,Jayapura,Indonesia,Papua,ID,IDN,-2.532986228,140.69998
